header:
  stamp:
    sec: 1741022127
    nanosec: 743225518
  frame_id: map
pose:
  position:
    x: 0.0
    y: 0.0
    z: 0.0
  orientation:
    x: 0.0
    y: 0.0
    z: 0.0
    w: 1.0
---
header:
  stamp:
    sec: 1741022128
    nanosec: 871986179
  frame_id: map
pose:
  position:
    x: 0.0272919134424051
    y: 0.0043183861252410706
    z: 0.036022537577371345
  orientation:
    x: -0.00186496375572182
    y: 0.006910615426504396
    z: 0.012325793863722624
    w: 0.9998984148953558
---
header:
  stamp:
    sec: 1741022129
    nanosec: 880308591
  frame_id: map
pose:
  position:
    x: 0.059162990803857625
    y: 0.016730538693091768
    z: 0.042339811403773006
  orientation:
    x: -0.0024940891703259496
    y: 0.0077277193733109595
    z: 0.0202656352869717
    w: 0.9997616545451786
---
header:
  stamp:
    sec: 1741022131
    nanosec: 142232718
  frame_id: map
pose:
  position:
    x: 0.0798239830588367
    y: 0.021483032965685496
    z: 0.04645223860770121
  orientation:
    x: -0.0041465520979528
    y: 0.008199150550964984
    z: 0.03491745547451905
    w: 0.9993479630934999
---
header:
  stamp:
    sec: 1741022132
    nanosec: 95999510
  frame_id: map
pose:
  position:
    x: 0.11264082872185244
    y: 0.011049887216391448
    z: 0.05212568504157758
  orientation:
    x: -0.00487732369171157
    y: 0.008789293618123195
    z: 0.04291328052455565
    w: 0.9990282330274364
---
header:
  stamp:
    sec: 1741022133
    nanosec: 507407226
  frame_id: map
pose:
  position:
    x: 0.11069065723316387
    y: 0.03306837300183244
    z: 0.023953442501999267
  orientation:
    x: -0.004147166028035869
    y: 0.004563048620565335
    z: 0.06180587477618136
    w: 0.9980691426170699
---
header:
  stamp:
    sec: 1741022134
    nanosec: 730601408
  frame_id: map
pose:
  position:
    x: 0.10306579934441808
    y: 0.030876020973870183
    z: 0.02392448793316617
  orientation:
    x: -0.0050547373000263025
    y: 0.004819494359747045
    z: 0.069675742906274
    w: 0.9975452435631195
---
header:
  stamp:
    sec: 1741022135
    nanosec: 994171931
  frame_id: map
pose:
  position:
    x: 0.09613027746272693
    y: 0.0793506066538054
    z: 0.023782529778480357
  orientation:
    x: -0.005626699017128453
    y: 0.004741527791365163
    z: 0.06974412515685645
    w: 0.9975377763165056
---
header:
  stamp:
    sec: 1741022137
    nanosec: 11378807
  frame_id: map
pose:
  position:
    x: 0.09271130784079668
    y: 0.10327754606020591
    z: 0.023936344309327943
  orientation:
    x: -0.006057883281340367
    y: 0.004699470364323388
    z: 0.06977713947655546
    w: 0.9975331412213402
---
header:
  stamp:
    sec: 1741022138
    nanosec: 47755560
  frame_id: map
pose:
  position:
    x: 0.08932736846473087
    y: 0.12693808046877525
    z: 0.02405138398300807
  orientation:
    x: -0.00648108795170309
    y: 0.0046567154261167865
    z: 0.06981002083847508
    w: 0.9975283812959581
---
header:
  stamp:
    sec: 1741022139
    nanosec: 310220300
  frame_id: map
pose:
  position:
    x: 0.1080540113657831
    y: 0.10618017996996702
    z: 0.01831925987861189
  orientation:
    x: -0.006870632106479591
    y: 0.003563304945606527
    z: 0.08377317159107352
    w: 0.9964547922479445
---
header:
  stamp:
    sec: 1741022140
    nanosec: 516203369
  frame_id: map
pose:
  position:
    x: 0.10416257178529781
    y: 0.128841202027469
    z: 0.018717831408189067
  orientation:
    x: -0.00745008120971357
    y: 0.003500693354981377
    z: 0.0838068121635392
    w: 0.9964480215600758
---
header:
  stamp:
    sec: 1741022141
    nanosec: 508583353
  frame_id: map
pose:
  position:
    x: 0.10021808306405049
    y: 0.1517848952591599
    z: 0.019030922363596683
  orientation:
    x: -0.007988744019671012
    y: 0.003441748064293093
    z: 0.08383890339560204
    w: 0.99644135432883
---
header:
  stamp:
    sec: 1741022142
    nanosec: 638597849
  frame_id: map
pose:
  position:
    x: 0.09627477724430256
    y: 0.17469382042687553
    z: 0.01914017606879535
  orientation:
    x: -0.008452900471324309
    y: 0.0033878706565426686
    z: 0.08386826135672407
    w: 0.996435239011064
---
header:
  stamp:
    sec: 1741022143
    nanosec: 767350160
  frame_id: map
pose:
  position:
    x: 0.09234810830394616
    y: 0.197488916056448
    z: 0.019193154380952503
  orientation:
    x: -0.008897344948628505
    y: 0.003335561795096531
    z: 0.08389719954519195
    w: 0.9964291099666098
---
header:
  stamp:
    sec: 1741022144
    nanosec: 951439928
  frame_id: map
pose:
  position:
    x: 0.08844258098215588
    y: 0.22015698362327973
    z: 0.019258032488549858
  orientation:
    x: -0.009331964727419354
    y: 0.0032845242620707094
    z: 0.08392573431253354
    w: 0.9964229009084448
---
header:
  stamp:
    sec: 1741022146
    nanosec: 64251373
  frame_id: map
pose:
  position:
    x: 0.08458973409290606
    y: 0.242520976100761
    z: 0.019360825864646495
  orientation:
    x: -0.009803855480797773
    y: 0.0032317244597893646
    z: 0.08395597595849874
    w: 0.9964159946907636
---
header:
  stamp:
    sec: 1741022147
    nanosec: 97551776
  frame_id: map
pose:
  position:
    x: 0.08077114911321129
    y: 0.26468981113585277
    z: 0.01955239896632537
  orientation:
    x: -0.010328067561458935
    y: 0.003175740305045527
    z: 0.08398707428780529
    w: 0.9964082582187562
---
header:
  stamp:
    sec: 1741022148
    nanosec: 840439202
  frame_id: map
pose:
  position:
    x: 0.07747161024273157
    y: 0.27978026838813064
    z: 0.030713268735760687
  orientation:
    x: -0.011271137863913065
    y: 0.005089486972144841
    z: 0.0856542841267456
    w: 0.9962481629515552
---
header:
  stamp:
    sec: 1741022150
    nanosec: 35583752
  frame_id: map
pose:
  position:
    x: 0.07356926982725248
    y: 0.30197006398308246
    z: 0.030719560221060507
  orientation:
    x: -0.01173531083429096
    y: 0.005038787445240223
    z: 0.08568452380872765
    w: 0.996240460672209
---
header:
  stamp:
    sec: 1741022151
    nanosec: 187292487
  frame_id: map
pose:
  position:
    x: 0.06969800504480911
    y: 0.323983621262827
    z: 0.030706405173687393
  orientation:
    x: -0.012190047914997433
    y: 0.004990252367960246
    z: 0.08571649652806494
    w: 0.9962324941177574
---
header:
  stamp:
    sec: 1741022152
    nanosec: 213603782
  frame_id: map
pose:
  position:
    x: 0.06583200831095215
    y: 0.3459546261927054
    z: 0.030670030393129287
  orientation:
    x: -0.012644454639991405
    y: 0.004943078581922777
    z: 0.0857490381222455
    w: 0.9962242650137068
---
header:
  stamp:
    sec: 1741022153
    nanosec: 389599174
  frame_id: map
pose:
  position:
    x: 0.062035195103998506
    y: 0.3675472549255846
    z: 0.03068310676962719
  orientation:
    x: -0.013132377658036367
    y: 0.0048935726874723695
    z: 0.08578433584238711
    w: 0.9962151581498241
---
header:
  stamp:
    sec: 1741022154
    nanosec: 655513149
  frame_id: map
pose:
  position:
    x: 0.05821203460008399
    y: 0.3892747523640471
    z: 0.030704441599342935
  orientation:
    x: -0.01364633391689591
    y: 0.0048434851823041525
    z: 0.08581912523039993
    w: 0.9962054988638669
---
header:
  stamp:
    sec: 1741022156
    nanosec: 789483525
  frame_id: map
pose:
  position:
    x: 0.04780546152646094
    y: 0.3995094577585201
    z: 0.03379437684122488
  orientation:
    x: -0.016103846047912228
    y: 0.00506669907497892
    z: 0.09331125712834545
    w: 0.9954938493009771
---
header:
  stamp:
    sec: 1741022158
    nanosec: 197553367
  frame_id: map
pose:
  position:
    x: 0.08199845802074932
    y: 0.4294458738474437
    z: 0.03814742335351637
  orientation:
    x: -0.016295578638704237
    y: 0.005034582605629057
    z: 0.093342272200177
    w: 0.9954879845157979
---
header:
  stamp:
    sec: 1741022159
    nanosec: 327254623
  frame_id: map
pose:
  position:
    x: 0.07784342278207965
    y: 0.45115424930944115
    z: 0.03787066673263217
  orientation:
    x: -0.016722200487479025
    y: 0.004988551556016407
    z: 0.09336833438356164
    w: 0.9954786971596474
---
header:
  stamp:
    sec: 1741022161
    nanosec: 69836947
  frame_id: map
pose:
  position:
    x: 0.16161074689626742
    y: 0.4913164674154836
    z: 0.05662714508410039
  orientation:
    x: -0.024543740507298316
    y: 0.005538383910695277
    z: 0.13324601948853876
    w: 0.9907635587747606
---
header:
  stamp:
    sec: 1741022162
    nanosec: 550373140
  frame_id: map
pose:
  position:
    x: 0.1576620665303842
    y: 0.5065353695727142
    z: 0.0585257204404996
  orientation:
    x: -0.025502522600320425
    y: 0.005424177960888232
    z: 0.1332782074381559
    w: 0.9907356453951482
---
header:
  stamp:
    sec: 1741022163
    nanosec: 675809095
  frame_id: map
pose:
  position:
    x: 0.15199325307155936
    y: 0.5271328591575853
    z: 0.05796210496365519
  orientation:
    x: -0.025956077188767558
    y: 0.005359322462956673
    z: 0.13329948548603102
    w: 0.9907213568349419
---
header:
  stamp:
    sec: 1741022164
    nanosec: 776267062
  frame_id: map
pose:
  position:
    x: 0.1463326683264781
    y: 0.547692550037795
    z: 0.05736893692253646
  orientation:
    x: -0.026412947550726033
    y: 0.005293853709752994
    z: 0.1333219880693684
    w: 0.9907066058181977
---
header:
  stamp:
    sec: 1741022165
    nanosec: 935589000
  frame_id: map
pose:
  position:
    x: 0.1407090770477048
    y: 0.568117354990618
    z: 0.05671491748993265
  orientation:
    x: -0.02683387246173139
    y: 0.005234771391553816
    z: 0.13334193309149142
    w: 0.990692923834934
---
header:
  stamp:
    sec: 1741022167
    nanosec: 531611294
  frame_id: map
pose:
  position:
    x: 0.17178892703374007
    y: 0.5584308751754857
    z: 0.05725607907562143
  orientation:
    x: -0.027553492028959205
    y: 0.0046038807418349315
    z: 0.1407715944984068
    w: 0.9896479007917417
---
header:
  stamp:
    sec: 1741022168
    nanosec: 643767157
  frame_id: map
pose:
  position:
    x: 0.16720397772033568
    y: 0.5748129101645262
    z: 0.05820257639810722
  orientation:
    x: -0.028216558034722065
    y: 0.004514554989158759
    z: 0.14079674042186588
    w: 0.98962605186631
---
header:
  stamp:
    sec: 1741022170
    nanosec: 37506286
  frame_id: map
pose:
  position:
    x: 0.16133405641785847
    y: 0.5949692010169245
    z: 0.057532076091223225
  orientation:
    x: -0.028656598070516473
    y: 0.004450082428979041
    z: 0.14081811896008536
    w: 0.9896106575446444
---
header:
  stamp:
    sec: 1741022171
    nanosec: 266605856
  frame_id: map
pose:
  position:
    x: 0.15552548108246514
    y: 0.6149166998703406
    z: 0.05690112918199398
  orientation:
    x: -0.029131358556949965
    y: 0.004381647000848643
    z: 0.14084022521138792
    w: 0.9895939551556443
---
header:
  stamp:
    sec: 1741022172
    nanosec: 444595813
  frame_id: map
pose:
  position:
    x: 0.14962412207015477
    y: 0.6351761152130286
    z: 0.05619695487820758
  orientation:
    x: -0.029570179959295857
    y: 0.004319251429705018
    z: 0.14086204331284877
    w: 0.9895781087301757
---
header:
  stamp:
    sec: 1741022173
    nanosec: 874590911
  frame_id: map
pose:
  position:
    x: 0.18187625325756882
    y: 0.6252230505859464
    z: 0.060010551227792155
  orientation:
    x: -0.030385339194394907
    y: 0.004377510468536849
    z: 0.14823889826211428
    w: 0.988474985827246
---
header:
  stamp:
    sec: 1741022175
    nanosec: 330338343
  frame_id: map
pose:
  position:
    x: 0.17891902204464213
    y: 0.6856094976134408
    z: 0.06964608400532701
  orientation:
    x: -0.030466794933560363
    y: 0.006415381641845075
    z: 0.14063021797248862
    w: 0.9895725132994936
---
header:
  stamp:
    sec: 1741022176
    nanosec: 999806266
  frame_id: map
pose:
  position:
    x: 0.20735071402810612
    y: 0.6468696463827017
    z: 0.06532947214140973
  orientation:
    x: -0.03025391917416793
    y: 0.005574382328484062
    z: 0.15376938518638494
    w: 0.9876277653122454
---
header:
  stamp:
    sec: 1741022178
    nanosec: 254902426
  frame_id: map
pose:
  position:
    x: 0.2033020912764077
    y: 0.6269664631784553
    z: 0.06965129978633296
  orientation:
    x: -0.031685284652664826
    y: 0.006284379609342583
    z: 0.1609470155092815
    w: 0.9864342895033913
---
header:
  stamp:
    sec: 1741022179
    nanosec: 561109009
  frame_id: map
pose:
  position:
    x: 0.19650379932105383
    y: 0.6472181500973607
    z: 0.06877224584811428
  orientation:
    x: -0.03205468265427774
    y: 0.0062244319988729035
    z: 0.16097169868774788
    w: 0.9864187072373509
---
header:
  stamp:
    sec: 1741022180
    nanosec: 857391093
  frame_id: map
pose:
  position:
    x: 0.18965743765777626
    y: 0.6676073079840242
    z: 0.06782065468858729
  orientation:
    x: -0.032375230834102944
    y: 0.0061739682116801475
    z: 0.1609979329279413
    w: 0.9864042741887779
---
header:
  stamp:
    sec: 1741022182
    nanosec: 16624800
  frame_id: map
pose:
  position:
    x: 0.17825936481641572
    y: 0.7019674537997393
    z: 0.06710071223387366
  orientation:
    x: -0.03318271377344677
    y: 0.0060459768999380215
    z: 0.16104158973446644
    w: 0.9863711066559839
---
header:
  stamp:
    sec: 1741022183
    nanosec: 188215567
  frame_id: map
pose:
  position:
    x: 0.16470155924874105
    y: 0.742359461190255
    z: 0.06512769879233331
  orientation:
    x: -0.03372121432364886
    y: 0.005954521076421804
    z: 0.16109513831516017
    w: 0.9863446556830469
---
header:
  stamp:
    sec: 1741022184
    nanosec: 374366149
  frame_id: map
pose:
  position:
    x: 0.15766391240326572
    y: 0.7633226766303581
    z: 0.06408324029509185
  orientation:
    x: -0.034032250451113036
    y: 0.005904187899890223
    z: 0.16111730743741337
    w: 0.9863306543642418
---
header:
  stamp:
    sec: 1741022185
    nanosec: 707102886
  frame_id: map
pose:
  position:
    x: 0.1506844281090262
    y: 0.7841050172074483
    z: 0.0630151329123239
  orientation:
    x: -0.034349435238851055
    y: 0.005853289439318621
    z: 0.16114046739860421
    w: 0.986316179056225
---
header:
  stamp:
    sec: 1741022186
    nanosec: 928641789
  frame_id: map
pose:
  position:
    x: 0.1802601351598774
    y: 0.7794390148921537
    z: 0.06546545749745583
  orientation:
    x: -0.033961932449179374
    y: 0.005755481931403517
    z: 0.16846704108802216
    w: 0.9851052317590756
---
header:
  stamp:
    sec: 1741022188
    nanosec: 191620361
  frame_id: map
pose:
  position:
    x: 0.17318373642385518
    y: 0.7995211322932018
    z: 0.06447309768722057
  orientation:
    x: -0.03427696368976755
    y: 0.005702671170179419
    z: 0.1684918258902534
    w: 0.9850903887003996
---
header:
  stamp:
    sec: 1741022189
    nanosec: 513380167
  frame_id: map
pose:
  position:
    x: 0.16616517193031677
    y: 0.8194297522353847
    z: 0.06339783312735771
  orientation:
    x: -0.0345211345647139
    y: 0.005663652247618334
    z: 0.16851880894260798
    w: 0.985077471747348
---
header:
  stamp:
    sec: 1741022190
    nanosec: 730639879
  frame_id: map
pose:
  position:
    x: 0.15906065937894404
    y: 0.8395827933665723
    z: 0.06235834396920059
  orientation:
    x: -0.03480273885165613
    y: 0.0056167244871210276
    z: 0.16854316695949723
    w: 0.9850636642601954
---
header:
  stamp:
    sec: 1741022192
    nanosec: 90636520
  frame_id: map
pose:
  position:
    x: 0.14512695148882868
    y: 0.8790458315705841
    z: 0.060085905445361
  orientation:
    x: -0.03512816496114688
    y: 0.005558217205629434
    z: 0.1685934860594913
    w: 0.9850438339009414
---
header:
  stamp:
    sec: 1741022192
    nanosec: 933489320
  frame_id: map
pose:
  position:
    x: 0.1451269514888287
    y: 0.879045831570584
    z: 0.06008590544536101
  orientation:
    x: -0.03512816496114688
    y: 0.005558217205629656
    z: 0.16859348605949132
    w: 0.9850438339009415
---
header:
  stamp:
    sec: 1741022193
    nanosec: 798019741
  frame_id: map
pose:
  position:
    x: 0.1451269514888283
    y: 0.8790458315705839
    z: 0.060085905445361014
  orientation:
    x: -0.03512816496114686
    y: 0.005558217205629767
    z: 0.1685934860594913
    w: 0.9850438339009414
---
header:
  stamp:
    sec: 1741022194
    nanosec: 652497305
  frame_id: map
pose:
  position:
    x: 0.1451269514888288
    y: 0.8790458315705838
    z: 0.06008590544536102
  orientation:
    x: -0.03512816496114686
    y: 0.005558217205629878
    z: 0.16859348605949143
    w: 0.9850438339009415
---
header:
  stamp:
    sec: 1741022195
    nanosec: 485496886
  frame_id: map
pose:
  position:
    x: 0.14512695148882912
    y: 0.8790458315705841
    z: 0.060085905445361215
  orientation:
    x: -0.03512816496114687
    y: 0.005558217205629767
    z: 0.16859348605949137
    w: 0.9850438339009416
---
header:
  stamp:
    sec: 1741022196
    nanosec: 305192759
  frame_id: map
pose:
  position:
    x: 0.1451269514888292
    y: 0.8790458315705839
    z: 0.06008590544536095
  orientation:
    x: -0.035128164961146846
    y: 0.005558217205629656
    z: 0.1685934860594914
    w: 0.9850438339009412
---
header:
  stamp:
    sec: 1741022197
    nanosec: 163549066
  frame_id: map
pose:
  position:
    x: 0.1451269514888287
    y: 0.879045831570584
    z: 0.060085905445361056
  orientation:
    x: -0.03512816496114679
    y: 0.005558217205629434
    z: 0.16859348605949137
    w: 0.9850438339009411
---
header:
  stamp:
    sec: 1741022197
    nanosec: 988255247
  frame_id: map
pose:
  position:
    x: 0.14512695148882912
    y: 0.8790458315705841
    z: 0.06008590544536116
  orientation:
    x: -0.0351281649611468
    y: 0.005558217205629656
    z: 0.16859348605949118
    w: 0.9850438339009414
---
header:
  stamp:
    sec: 1741022199
    nanosec: 414233955
  frame_id: map
pose:
  position:
    x: 0.18193148580836363
    y: 0.8925898191839386
    z: 0.0616223352948502
  orientation:
    x: -0.03420864106037486
    y: 0.005664303108725566
    z: 0.16858961751214976
    w: 0.9850762536038524
---
header:
  stamp:
    sec: 1741022200
    nanosec: 749575914
  frame_id: map
pose:
  position:
    x: 0.21285552692822288
    y: 0.887231781980114
    z: 0.06517079785217408
  orientation:
    x: -0.034620883558973296
    y: 0.006106887269192063
    z: 0.17586887750182567
    w: 0.9837856668379169
---
header:
  stamp:
    sec: 1741022202
    nanosec: 112643544
  frame_id: map
pose:
  position:
    x: 0.24440311394974157
    y: 0.8820790546753362
    z: 0.06994261894000876
  orientation:
    x: -0.03511837245790067
    y: 0.0067381405217441515
    z: 0.1831558745863322
    w: 0.9824333173211978
---
header:
  stamp:
    sec: 1741022204
    nanosec: 89780699
  frame_id: map
pose:
  position:
    x: 0.2726038751069381
    y: 0.9114294188603224
    z: 0.10777341619988655
  orientation:
    x: -0.03758197686603167
    y: 0.013485578839423473
    z: 0.18781875849733792
    w: 0.9813917913528346
---
header:
  stamp:
    sec: 1741022205
    nanosec: 742085518
  frame_id: map
pose:
  position:
    x: 0.39746410377334507
    y: 0.9703981185697939
    z: 0.11932769264829522
  orientation:
    x: -0.04188575455067149
    y: 0.01242816753685927
    z: 0.21697261479456845
    w: 0.9751994712091494
---
header:
  stamp:
    sec: 1741022206
    nanosec: 967472683
  frame_id: map
pose:
  position:
    x: 0.38069218694862966
    y: 1.00609844418795
    z: 0.11665296364123927
  orientation:
    x: -0.04210049427333855
    y: 0.012378787600155317
    z: 0.21700325012869479
    w: 0.9751840356738181
---
header:
  stamp:
    sec: 1741022208
    nanosec: 135092588
  frame_id: map
pose:
  position:
    x: 0.37267049216347997
    y: 1.0231737461794093
    z: 0.11536905272474848
  orientation:
    x: -0.04221384660838431
    y: 0.012355763218379057
    z: 0.21701723816392732
    w: 0.9751763146270096
---
header:
  stamp:
    sec: 1741022209
    nanosec: 535324853
  frame_id: map
pose:
  position:
    x: 0.3650430219285703
    y: 1.0394152383582407
    z: 0.11415717057525983
  orientation:
    x: -0.04238480741230239
    y: 0.012320507896363297
    z: 0.2170353183080871
    w: 0.9751653212623514
---
header:
  stamp:
    sec: 1741022210
    nanosec: 864305327
  frame_id: map
pose:
  position:
    x: 0.3562148792848257
    y: 1.0582227171601155
    z: 0.11288582441283959
  orientation:
    x: -0.04257660294243422
    y: 0.012279502885492288
    z: 0.21705141148085416
    w: 0.9751539014252762
---
header:
  stamp:
    sec: 1741022212
    nanosec: 190650337
  frame_id: map
pose:
  position:
    x: 0.3482521002665115
    y: 1.0751730111746518
    z: 0.11166223175429683
  orientation:
    x: -0.042747702856512734
    y: 0.012243280269873424
    z: 0.2170658644028611
    w: 0.975143654288825
---
header:
  stamp:
    sec: 1741022213
    nanosec: 483358660
  frame_id: map
pose:
  position:
    x: 0.3402400059426147
    y: 1.0922298804920147
    z: 0.11045692561086158
  orientation:
    x: -0.0429130401925649
    y: 0.01220774971164218
    z: 0.21707916102275984
    w: 0.975133877822971
---
header:
  stamp:
    sec: 1741022214
    nanosec: 774578207
  frame_id: map
pose:
  position:
    x: 0.37014136758452587
    y: 1.0928969635538182
    z: 0.11659740752403265
  orientation:
    x: -0.04380031404472254
    y: 0.012919766792071186
    z: 0.22415978779186518
    w: 0.9734818959039393
---
header:
  stamp:
    sec: 1741022216
    nanosec: 437143418
  frame_id: map
pose:
  position:
    x: 0.39978942809535817
    y: 1.092514321740827
    z: 0.12189844937423815
  orientation:
    x: -0.044738206896477985
    y: 0.013378863799096363
    z: 0.23125052550408162
    w: 0.971772963866159
---
header:
  stamp:
    sec: 1741022218
    nanosec: 126411579
  frame_id: map
pose:
  position:
    x: 0.42995870914934303
    y: 1.093956698997088
    z: 0.12781247766283918
  orientation:
    x: -0.0455799157702069
    y: 0.014044874631647275
    z: 0.238253317598281
    w: 0.9700312208523886
---
header:
  stamp:
    sec: 1741022219
    nanosec: 478742691
  frame_id: map
pose:
  position:
    x: 0.4221248776022626
    y: 1.1089956681945357
    z: 0.12717548306462886
  orientation:
    x: -0.045867208696656635
    y: 0.013972152198954868
    z: 0.23826232240539877
    w: 0.97001651730849
---
header:
  stamp:
    sec: 1741022220
    nanosec: 843430797
  frame_id: map
pose:
  position:
    x: 0.4124879865028129
    y: 1.1273696585430018
    z: 0.12579820555133434
  orientation:
    x: -0.045980382029000996
    y: 0.013946535906711466
    z: 0.23827465227471276
    w: 0.970008499286493
---
header:
  stamp:
    sec: 1741022222
    nanosec: 120311779
  frame_id: map
pose:
  position:
    x: 0.40376741406463956
    y: 1.1440049548094937
    z: 0.12459944981727804
  orientation:
    x: -0.0462323792464579
    y: 0.013884982445907301
    z: 0.23828757974573153
    w: 0.9699942286996406
---
header:
  stamp:
    sec: 1741022223
    nanosec: 544168909
  frame_id: map
pose:
  position:
    x: 0.39463881583532284
    y: 1.1614158099044747
    z: 0.12339178651395252
  orientation:
    x: -0.0463964075339399
    y: 0.013846679163854736
    z: 0.23829978225673434
    w: 0.9699839465787412
---
header:
  stamp:
    sec: 1741022224
    nanosec: 939387995
  frame_id: map
pose:
  position:
    x: 0.38587045688298177
    y: 1.1781203517769272
    z: 0.12208963681966604
  orientation:
    x: -0.046601659577102224
    y: 0.013798819374202909
    z: 0.238310896130684
    w: 0.9699720587181508
---
header:
  stamp:
    sec: 1741022226
    nanosec: 330481450
  frame_id: map
pose:
  position:
    x: 0.3760619145383823
    y: 1.1967940019068464
    z: 0.12052804538394576
  orientation:
    x: -0.046724188025237263
    y: 0.013771078171840312
    z: 0.2383235762749631
    w: 0.9699634429455983
---
header:
  stamp:
    sec: 1741022227
    nanosec: 761288895
  frame_id: map
pose:
  position:
    x: 0.368114280416321
    y: 1.2119439382857953
    z: 0.11939204885131083
  orientation:
    x: -0.046884443330935006
    y: 0.013733099285750172
    z: 0.23833997609432636
    w: 0.9699522187989014
---
header:
  stamp:
    sec: 1741022228
    nanosec: 843942076
  frame_id: map
pose:
  position:
    x: 0.35828862594720595
    y: 1.2306493488117671
    z: 0.11782081314501311
  orientation:
    x: -0.04700789051159048
    y: 0.013703656102130202
    z: 0.23835212751477503
    w: 0.9699436743173622
---
header:
  stamp:
    sec: 1741022230
    nanosec: 53163545
  frame_id: map
pose:
  position:
    x: 0.3487569259702458
    y: 1.248798330575651
    z: 0.11634884890072018
  orientation:
    x: -0.04718723806086443
    y: 0.013661190373637777
    z: 0.2383649800117333
    w: 0.9699324062767302
---
header:
  stamp:
    sec: 1741022231
    nanosec: 178171106
  frame_id: map
pose:
  position:
    x: 0.33876430374237154
    y: 1.267818461776071
    z: 0.11476783887189379
  orientation:
    x: -0.04736917651260159
    y: 0.013617468965551938
    z: 0.2383784494348217
    w: 0.9699208423889755
---
header:
  stamp:
    sec: 1741022232
    nanosec: 434647449
  frame_id: map
pose:
  position:
    x: 0.3300515566036592
    y: 1.284410727216741
    z: 0.11352007822308897
  orientation:
    x: -0.047599465818724124
    y: 0.013562815667047645
    z: 0.23839289458614346
    w: 0.9699067835084947
---
header:
  stamp:
    sec: 1741022233
    nanosec: 729336505
  frame_id: map
pose:
  position:
    x: 0.3199566655307691
    y: 1.303611971323552
    z: 0.11186912149540829
  orientation:
    x: -0.047768758227952644
    y: 0.013523273044535156
    z: 0.23840688978260463
    w: 0.9698955725889813
---
header:
  stamp:
    sec: 1741022234
    nanosec: 898374083
  frame_id: map
pose:
  position:
    x: 0.3109226047734904
    y: 1.3208148258210965
    z: 0.11057933501616281
  orientation:
    x: -0.04802382327308746
    y: 0.013461682084529913
    z: 0.23842111022325319
    w: 0.9698803378322511
---
header:
  stamp:
    sec: 1741022236
    nanosec: 324388189
  frame_id: map
pose:
  position:
    x: 0.30208050966003674
    y: 1.337637488397822
    z: 0.10923794361857432
  orientation:
    x: -0.04824992280530981
    y: 0.013409127814585808
    z: 0.23843691103413847
    w: 0.9698659596547516
---
header:
  stamp:
    sec: 1741022237
    nanosec: 774850486
  frame_id: map
pose:
  position:
    x: 0.2922264621723983
    y: 1.3563734928137574
    z: 0.10764475235105651
  orientation:
    x: -0.04847639414825585
    y: 0.013354802990725556
    z: 0.23845100685056075
    w: 0.9698519504436829
---
header:
  stamp:
    sec: 1741022239
    nanosec: 198396840
  frame_id: map
pose:
  position:
    x: 0.2874460639610148
    y: 1.3470233597043526
    z: 0.11098314672825658
  orientation:
    x: -0.04921815873980898
    y: 0.014062037673949868
    z: 0.2439225185942763
    w: 0.9684428929314028
---
header:
  stamp:
    sec: 1741022240
    nanosec: 711025191
  frame_id: map
pose:
  position:
    x: 0.27837420787492645
    y: 1.3638168364985097
    z: 0.10965338833550964
  orientation:
    x: -0.049457192626054296
    y: 0.014003174373703686
    z: 0.24393811875965365
    w: 0.9684276387118506
---
header:
  stamp:
    sec: 1741022242
    nanosec: 152498083
  frame_id: map
pose:
  position:
    x: 0.26798379125182487
    y: 1.3830359723874102
    z: 0.10801308557677632
  orientation:
    x: -0.049720802259181046
    y: 0.013937659813654246
    z: 0.2439530037128959
    w: 0.9684113358697726
---
header:
  stamp:
    sec: 1741022243
    nanosec: 610610166
  frame_id: map
pose:
  position:
    x: 0.2588634315326623
    y: 1.3999170974128639
    z: 0.10665720495777986
  orientation:
    x: -0.049939512746717776
    y: 0.013883764473906157
    z: 0.24396652316311604
    w: 0.9683974502890611
---
header:
  stamp:
    sec: 1741022244
    nanosec: 945669464
  frame_id: map
pose:
  position:
    x: 0.24865561211120613
    y: 1.418801497972669
    z: 0.10508527941464722
  orientation:
    x: -0.050211144735371714
    y: 0.013816173974981583
    z: 0.2439803892728366
    w: 0.9683808775122169
---
header:
  stamp:
    sec: 1741022246
    nanosec: 243273374
  frame_id: map
pose:
  position:
    x: 0.23858409059710176
    y: 1.4374255000592766
    z: 0.10349620674094188
  orientation:
    x: -0.050465726039391916
    y: 0.013752767285228118
    z: 0.2439945260851074
    w: 0.9683649844597952
---
header:
  stamp:
    sec: 1741022248
    nanosec: 229557060
  frame_id: map
pose:
  position:
    x: 0.23319905863325782
    y: 1.4265267495400777
    z: 0.10601706605388866
  orientation:
    x: -0.05112013626914031
    y: 0.014308328267855774
    z: 0.24959658751796163
    w: 0.9668937619559829
---
header:
  stamp:
    sec: 1741022249
    nanosec: 650651419
  frame_id: map
pose:
  position:
    x: 0.22293807706435326
    y: 1.4449907448390265
    z: 0.10443667937801406
  orientation:
    x: -0.05137962251478058
    y: 0.014241266585403367
    z: 0.2496091376834615
    w: 0.9668777580962344
---
header:
  stamp:
    sec: 1741022251
    nanosec: 235139625
  frame_id: map
pose:
  position:
    x: 0.21295063079438267
    y: 1.4629572915582374
    z: 0.10294019011851349
  orientation:
    x: -0.05166357606338622
    y: 0.014168765261212135
    z: 0.24962323306053874
    w: 0.9668600532216225
---
header:
  stamp:
    sec: 1741022252
    nanosec: 955968281
  frame_id: map
pose:
  position:
    x: 0.20250638649193223
    y: 1.481734765342512
    z: 0.10126728163620954
  orientation:
    x: -0.05190337116840004
    y: 0.014107704226815398
    z: 0.24963588024170966
    w: 0.9668448376232621
---
header:
  stamp:
    sec: 1741022254
    nanosec: 188492196
  frame_id: map
pose:
  position:
    x: 0.19292350842572925
    y: 1.498969527514348
    z: 0.09979574769186728
  orientation:
    x: -0.05216243612420009
    y: 0.01404165302316196
    z: 0.24964885035635362
    w: 0.9668285079339133
---
header:
  stamp:
    sec: 1741022255
    nanosec: 568036120
  frame_id: map
pose:
  position:
    x: 0.18262205649888277
    y: 1.517492385694771
    z: 0.09817786528399615
  orientation:
    x: -0.052432623551053416
    y: 0.013972523363640965
    z: 0.24966219879185675
    w: 0.9668114475288454
---
header:
  stamp:
    sec: 1741022257
    nanosec: 258640634
  frame_id: map
pose:
  position:
    x: 0.1662300928234416
    y: 1.5209579014845358
    z: 0.0989044772937719
  orientation:
    x: -0.05354119273472987
    y: 0.014402439798897326
    z: 0.25592404205220404
    w: 0.9651055875436862
---
header:
  stamp:
    sec: 1741022258
    nanosec: 572280159
  frame_id: map
pose:
  position:
    x: 0.1561262680782237
    y: 1.538573775772428
    z: 0.09730894423450698
  orientation:
    x: -0.05381220699658637
    y: 0.01433193673496258
    z: 0.2559373382237538
    w: 0.9650880378859336
---
header:
  stamp:
    sec: 1741022260
    nanosec: 106359486
  frame_id: map
pose:
  position:
    x: 0.1458463282905734
    y: 1.5564986086981372
    z: 0.0956819794213717
  orientation:
    x: -0.054088573234790674
    y: 0.014259975496288102
    z: 0.2559490210955561
    w: 0.965070555941117
---
header:
  stamp:
    sec: 1741022261
    nanosec: 406842094
  frame_id: map
pose:
  position:
    x: 0.1354322761438926
    y: 1.57463941906024
    z: 0.09392477566969261
  orientation:
    x: -0.05433630123744876
    y: 0.014195638692460322
    z: 0.25596054120826767
    w: 0.9650545329432517
---
header:
  stamp:
    sec: 1741022262
    nanosec: 815987379
  frame_id: map
pose:
  position:
    x: 0.12527926518624904
    y: 1.5923267955189144
    z: 0.0922193222490481
  orientation:
    x: -0.05457755034511258
    y: 0.014132950193617932
    z: 0.25597158079646404
    w: 0.9650389114132708
---
header:
  stamp:
    sec: 1741022264
    nanosec: 542723545
  frame_id: map
pose:
  position:
    x: 0.11490073901542795
    y: 1.6104050318115597
    z: 0.09042239592437325
  orientation:
    x: -0.054807432838836545
    y: 0.014073304327760772
    z: 0.2559818416017196
    w: 0.9650240329551938
---
header:
  stamp:
    sec: 1741022265
    nanosec: 854594127
  frame_id: map
pose:
  position:
    x: 0.10466760226359079
    y: 1.628225655457026
    z: 0.08863048890700388
  orientation:
    x: -0.05501535698601274
    y: 0.014019438111307458
    z: 0.25599173954854665
    w: 0.9650103601172648
---
header:
  stamp:
    sec: 1741022267
    nanosec: 151351817
  frame_id: map
pose:
  position:
    x: 0.09427702937495527
    y: 1.6463138741552699
    z: 0.08678579927610876
  orientation:
    x: -0.05522367056859923
    y: 0.01396648339415385
    z: 0.25600160920142684
    w: 0.9649966112048329
---
header:
  stamp:
    sec: 1741022268
    nanosec: 421475333
  frame_id: map
pose:
  position:
    x: 0.08425452251478135
    y: 1.6637707748461708
    z: 0.08508200994535016
  orientation:
    x: -0.055476500894431076
    y: 0.013900974276053857
    z: 0.25601267617918716
    w: 0.9649801191725441
---
header:
  stamp:
    sec: 1741022269
    nanosec: 818849389
  frame_id: map
pose:
  position:
    x: 0.07387585246526972
    y: 1.6818367634625688
    z: 0.08322907804471885
  orientation:
    x: -0.05568896346327354
    y: 0.013847661640884357
    z: 0.2560228643217261
    w: 0.9649659447669462
---
header:
  stamp:
    sec: 1741022271
    nanosec: 157799665
  frame_id: map
pose:
  position:
    x: 0.06365414132187142
    y: 1.6996289368114497
    z: 0.08141002063133859
  orientation:
    x: -0.05592140229664222
    y: 0.013788448177400547
    z: 0.25603341437844
    w: 0.964950551159879
---
header:
  stamp:
    sec: 1741022272
    nanosec: 406310899
  frame_id: map
pose:
  position:
    x: 0.053387763489908334
    y: 1.717502724424832
    z: 0.07959895271470599
  orientation:
    x: -0.05615839041826689
    y: 0.013728092666602465
    z: 0.25604396311495226
    w: 0.9649348494119983
---
header:
  stamp:
    sec: 1741022273
    nanosec: 578657734
  frame_id: map
pose:
  position:
    x: 0.04303266514375714
    y: 1.735510673916062
    z: 0.07765811398321908
  orientation:
    x: -0.05634091070138609
    y: 0.013683346384667616
    z: 0.25605355518274225
    w: 0.9649222998207334
---
header:
  stamp:
    sec: 1741022274
    nanosec: 927463096
  frame_id: map
pose:
  position:
    x: 0.032778269234985724
    y: 1.7533592743816595
    z: 0.07584062715387674
  orientation:
    x: -0.05658615311781034
    y: 0.013621114321485717
    z: 0.2560644121140927
    w: 0.9649059484574819
---
header:
  stamp:
    sec: 1741022276
    nanosec: 251215220
  frame_id: map
pose:
  position:
    x: 0.022316585718071907
    y: 1.7715480464859423
    z: 0.07384770356455678
  orientation:
    x: -0.05675624260763879
    y: 0.013579373004018902
    z: 0.2560740355082772
    w: 0.9648939930854509
---
header:
  stamp:
    sec: 1741022277
    nanosec: 466264004
  frame_id: map
pose:
  position:
    x: 0.01189960996675329
    y: 1.7896620902670808
    z: 0.07190132824753157
  orientation:
    x: -0.05695852400192954
    y: 0.013528719890788299
    z: 0.2560856903631038
    w: 0.9648796917092255
---
header:
  stamp:
    sec: 1741022278
    nanosec: 795596593
  frame_id: map
pose:
  position:
    x: 0.0013454415748885007
    y: 1.8079970761127169
    z: 0.06984371925312212
  orientation:
    x: -0.05713365868256257
    y: 0.013484707645818661
    z: 0.2560978302968422
    w: 0.9648667312237998
---
header:
  stamp:
    sec: 1741022280
    nanosec: 94180887
  frame_id: map
pose:
  position:
    x: -0.009265957460283991
    y: 1.8264221130154794
    z: 0.06776312882759292
  orientation:
    x: -0.057316409125075685
    y: 0.0134379318606479
    z: 0.2561118829792452
    w: 0.9648528150081448
---
header:
  stamp:
    sec: 1741022281
    nanosec: 548093221
  frame_id: map
pose:
  position:
    x: 0.00680560652669659
    y: 1.8455424061461563
    z: 0.07219106617478677
  orientation:
    x: -0.05749534327945645
    y: 0.01387593813963961
    z: 0.26278876920205296
    w: 0.9630388396234043
---
header:
  stamp:
    sec: 1741022283
    nanosec: 269635601
  frame_id: map
pose:
  position:
    x: 0.033225797054812344
    y: 1.8483530300452544
    z: 0.07951476495898561
  orientation:
    x: -0.05746205172883054
    y: 0.014620833820159551
    z: 0.2692652623015244
    w: 0.9612390765814758
---
header:
  stamp:
    sec: 1741022284
    nanosec: 428460922
  frame_id: map
pose:
  position:
    x: 0.022128274595156646
    y: 1.866449271538863
    z: 0.07742859690813803
  orientation:
    x: -0.057635394902365765
    y: 0.014573178589529556
    z: 0.26927842428578397
    w: 0.9612257351602748
---
header:
  stamp:
    sec: 1741022285
    nanosec: 746620323
  frame_id: map
pose:
  position:
    x: 0.01105152649151518
    y: 1.8845061229489486
    z: 0.07533265408149464
  orientation:
    x: -0.057834433796364756
    y: 0.014518176676601935
    z: 0.26929276184637874
    w: 0.9612105956712034
---
header:
  stamp:
    sec: 1741022287
    nanosec: 403364255
  frame_id: map
pose:
  position:
    x: 0.03784194475528687
    y: 1.8868482094873567
    z: 0.07985631478238793
  orientation:
    x: -0.058256528745068314
    y: 0.01525600479932876
    z: 0.2758467935746445
    w: 0.9593132844127229
---
header:
  stamp:
    sec: 1741022288
    nanosec: 766575139
  frame_id: map
pose:
  position:
    x: 0.054297616437695456
    y: 1.9051718156020903
    z: 0.0847539191055242
  orientation:
    x: -0.05828722470736102
    y: 0.015869511896861255
    z: 0.2827168128202607
    w: 0.9572993062657171
---
header:
  stamp:
    sec: 1741022290
    nanosec: 12767622
  frame_id: map
pose:
  position:
    x: 0.04274129799768826
    y: 1.9228718753833387
    z: 0.08262057169247242
  orientation:
    x: -0.058414263917518555
    y: 0.015833083795842806
    z: 0.2827273102973186
    w: 0.957289065664354
---
header:
  stamp:
    sec: 1741022291
    nanosec: 652595204
  frame_id: map
pose:
  position:
    x: 0.036242672698212824
    y: 1.9060726551883638
    z: 0.0855537811241508
  orientation:
    x: -0.059136521016893324
    y: 0.016575962609838957
    z: 0.28929537057705257
    w: 0.955267657731728
---
header:
  stamp:
    sec: 1741022293
    nanosec: 241784238
  frame_id: map
pose:
  position:
    x: 0.020589522735545776
    y: 1.9295973316198103
    z: 0.08347270549776178
  orientation:
    x: -0.059564065859196304
    y: 0.016445545075087442
    z: 0.28930387853592293
    w: 0.9552407717269906
---
header:
  stamp:
    sec: 1741022295
    nanosec: 251290680
  frame_id: map
pose:
  position:
    x: 0.036612203676829935
    y: 1.946479865380324
    z: 0.08464690440044244
  orientation:
    x: -0.059926430156587183
    y: 0.016980420422948228
    z: 0.2962997142055751
    w: 0.9530618907776357
---
header:
  stamp:
    sec: 1741022296
    nanosec: 486360261
  frame_id: map
pose:
  position:
    x: 0.02446829900635546
    y: 1.963956983667216
    z: 0.08239092326340716
  orientation:
    x: -0.05997926102764547
    y: 0.016964185873190263
    z: 0.2963083707525884
    w: 0.9530561652212236
---
header:
  stamp:
    sec: 1741022298
    nanosec: 467582883
  frame_id: map
pose:
  position:
    x: 0.03963906991026569
    y: 1.943553651077255
    z: 0.0807939838567309
  orientation:
    x: -0.06027818534678577
    y: 0.016893794519317162
    z: 0.3087723553209116
    w: 0.9490736392228026
---
header:
  stamp:
    sec: 1741022299
    nanosec: 717618385
  frame_id: map
pose:
  position:
    x: 0.02700108470208546
    y: 1.9607539765685231
    z: 0.07852709311363018
  orientation:
    x: -0.0603507129381942
    y: 0.01687026812113046
    z: 0.30878171215061256
    w: 0.9490664042851314
---
header:
  stamp:
    sec: 1741022300
    nanosec: 947587076
  frame_id: map
pose:
  position:
    x: 0.014426320268361442
    y: 1.9778804903658087
    z: 0.07637253080234276
  orientation:
    x: -0.06048376023332447
    y: 0.016826572158550435
    z: 0.30879243606542783
    w: 0.949055221073152
---
header:
  stamp:
    sec: 1741022302
    nanosec: 314441896
  frame_id: map
pose:
  position:
    x: 0.001732412030656473
    y: 1.9951576128642774
    z: 0.07410618315826206
  orientation:
    x: -0.06057665486948063
    y: 0.01679538795486768
    z: 0.30880152586785553
    w: 0.9490468910701689
---
header:
  stamp:
    sec: 1741022303
    nanosec: 982421880
  frame_id: map
pose:
  position:
    x: 0.011538859048565397
    y: 1.983845868055361
    z: 0.03062467522200083
  orientation:
    x: -0.058901591403236905
    y: 0.008000150888672897
    z: 0.3157320862197158
    w: 0.9469846090867953
---
header:
  stamp:
    sec: 1741022305
    nanosec: 334946646
  frame_id: map
pose:
  position:
    x: -0.0015219504013474772
    y: 2.001126307080651
    z: 0.028299795288297847
  orientation:
    x: -0.0589909822917965
    y: 0.007968753493794778
    z: 0.315740161800081
    w: 0.9469766170304642
---
header:
  stamp:
    sec: 1741022306
    nanosec: 622110012
  frame_id: map
pose:
  position:
    x: -0.014468823282304548
    y: 2.0182568644579986
    z: 0.026025358357837536
  orientation:
    x: -0.05912555194423373
    y: 0.007922030162450189
    z: 0.31574945651364744
    w: 0.9469655174591792
---
header:
  stamp:
    sec: 1741022308
    nanosec: 9305546
  frame_id: map
pose:
  position:
    x: -0.027543901789114346
    y: 2.0355552654526132
    z: 0.02371510980724712
  orientation:
    x: -0.059261987350250976
    y: 0.007874810865212467
    z: 0.3157587676250682
    w: 0.946954278134395
---
header:
  stamp:
    sec: 1741022309
    nanosec: 257595138
  frame_id: map
pose:
  position:
    x: -0.04059745354642705
    y: 2.0528201230808634
    z: 0.021390609115358054
  orientation:
    x: -0.05942111770383617
    y: 0.007820562604329284
    z: 0.3157687899761453
    w: 0.946941413630421
---
header:
  stamp:
    sec: 1741022310
    nanosec: 844272040
  frame_id: map
pose:
  position:
    x: -0.059811025374878174
    y: 2.078545141910312
    z: 0.018635894960340134
  orientation:
    x: -0.05976458662254517
    y: 0.007719674110152508
    z: 0.3157810793870041
    w: 0.9469165278516622
---
header:
  stamp:
    sec: 1741022312
    nanosec: 702091326
  frame_id: map
pose:
  position:
    x: -0.013407556966954698
    y: 2.116960701028392
    z: 0.025269077985192987
  orientation:
    x: -0.05978621992976031
    y: 0.008199490191897585
    z: 0.32298544542144275
    w: 0.9444780454372748
---
header:
  stamp:
    sec: 1741022314
    nanosec: 508270991
  frame_id: map
pose:
  position:
    x: 0.01456095564146058
    y: 2.1176559048229846
    z: 0.034192262141394564
  orientation:
    x: -0.059629062408647925
    y: 0.00930636559280451
    z: 0.3301412320703948
    w: 0.9420002831012103
---
header:
  stamp:
    sec: 1741022316
    nanosec: 302257957
  frame_id: map
pose:
  position:
    x: 0.03288624482107033
    y: 2.157847424471579
    z: 0.036057907659085064
  orientation:
    x: -0.059761287800403115
    y: 0.009262444518845614
    z: 0.33015280345640463
    w: 0.9419882812285136
---
header:
  stamp:
    sec: 1741022318
    nanosec: 42275059
  frame_id: map
pose:
  position:
    x: 0.06119733264275093
    y: 2.158706461927237
    z: 0.03699227115634503
  orientation:
    x: -0.05978875413892954
    y: 0.009329553940010005
    z: 0.3374100675905857
    w: 0.9394108316334828
---
header:
  stamp:
    sec: 1741022319
    nanosec: 724635817
  frame_id: map
pose:
  position:
    x: 0.04298766732211241
    y: 2.1808744783962517
    z: 0.03490478190027332
  orientation:
    x: -0.06058930437813433
    y: 0.009036549306349784
    z: 0.33742313042729927
    w: 0.9393577103661044
---
header:
  stamp:
    sec: 1741022321
    nanosec: 20072514
  frame_id: map
pose:
  position:
    x: 0.06059022069595543
    y: 2.221467369922479
    z: 0.036578894248584855
  orientation:
    x: -0.06048684492592409
    y: 0.009078792426149285
    z: 0.3374296156296992
    w: 0.9393615766120004
---
header:
  stamp:
    sec: 1741022322
    nanosec: 874947261
  frame_id: map
pose:
  position:
    x: 0.036205760587002395
    y: 2.284045737215442
    z: 0.0395634603718207
  orientation:
    x: -0.061409592743868834
    y: 0.009520048347709142
    z: 0.3297068199836815
    w: 0.9420359034849668
---
header:
  stamp:
    sec: 1741022324
    nanosec: 605207459
  frame_id: map
pose:
  position:
    x: 0.019288258994195513
    y: 2.3053345534660132
    z: 0.037522517126596024
  orientation:
    x: -0.062051330626415546
    y: 0.009283092316180408
    z: 0.3297181172019978
    w: 0.9419922609837675
---
header:
  stamp:
    sec: 1741022326
    nanosec: 635516461
  frame_id: map
pose:
  position:
    x: -0.0012450128964748425
    y: 2.3668480956163864
    z: 0.04314045901970866
  orientation:
    x: -0.06376458287615588
    y: 0.009975368580443011
    z: 0.32210129685047445
    w: 0.9445026863696878
---
header:
  stamp:
    sec: 1741022328
    nanosec: 408910929
  frame_id: map
pose:
  position:
    x: 0.018230629071194757
    y: 2.375728960687268
    z: 0.0012564577162080537
  orientation:
    x: -0.06040280902992736
    y: 0.0012382055293979066
    z: 0.32327410774528625
    w: 0.9443748295935517
---
header:
  stamp:
    sec: 1741022330
    nanosec: 449646084
  frame_id: map
pose:
  position:
    x: 0.03473253976773955
    y: 2.39552002790509
    z: 0.04956043301321829
  orientation:
    x: -0.06514999839486456
    y: 0.009634180536379322
    z: 0.3229812665920327
    w: 0.9441110960608122
---
header:
  stamp:
    sec: 1741022332
    nanosec: 239418315
  frame_id: map
pose:
  position:
    x: 0.10556831620984333
    y: 2.4334931371126975
    z: 0.06096256375729644
  orientation:
    x: -0.0640843574284753
    y: 0.009988783529197631
    z: 0.3229648469327956
    w: 0.9441859599582395
---
header:
  stamp:
    sec: 1741022333
    nanosec: 959723047
  frame_id: map
pose:
  position:
    x: 0.1074703390858085
    y: 2.43111262355366
    z: 0.061391813512759214
  orientation:
    x: -0.06310432126913135
    y: 0.010317680117416184
    z: 0.32295260821548233
    w: 0.9442526160731428
---
header:
  stamp:
    sec: 1741022335
    nanosec: 528114818
  frame_id: map
pose:
  position:
    x: 0.11084904418634704
    y: 2.4604271744243658
    z: 0.06340001019995552
  orientation:
    x: -0.0622228421804079
    y: 0.01067660611789778
    z: 0.31463413990192657
    w: 0.9471112321163605
---
header:
  stamp:
    sec: 1741022336
    nanosec: 681091442
  frame_id: map
pose:
  position:
    x: 0.1526691717428797
    y: 2.4706531091292385
    z: 0.07007369069634217
  orientation:
    x: -0.06215317610375195
    y: 0.010698979425427635
    z: 0.31462939254815
    w: 0.9471171310267025
---
header:
  stamp:
    sec: 1741022338
    nanosec: 104425732
  frame_id: map
pose:
  position:
    x: 0.1567210822165216
    y: 2.4993988839111827
    z: 0.07215538870947762
  orientation:
    x: -0.061444292143826025
    y: 0.01089051031727617
    z: 0.30607551450671916
    w: 0.949959880819933
---
header:
  stamp:
    sec: 1741022339
    nanosec: 342581220
  frame_id: map
pose:
  position:
    x: 0.19713162535727197
    y: 2.5110905444211706
    z: 0.07902023718452483
  orientation:
    x: -0.06255061891254207
    y: 0.010533764678330004
    z: 0.30608374690747997
    w: 0.9498890460229752
---
header:
  stamp:
    sec: 1741022340
    nanosec: 804281461
  frame_id: map
pose:
  position:
    x: 0.20181927962874505
    y: 2.539059280230261
    z: 0.08075605776619453
  orientation:
    x: -0.061666168737328976
    y: 0.010619585999526282
    z: 0.2972965592691237
    w: 0.9527325248322315
---
header:
  stamp:
    sec: 1741022342
    nanosec: 431152176
  frame_id: map
pose:
  position:
    x: 0.24214709268510365
    y: 2.550380704325067
    z: 0.0874102825702282
  orientation:
    x: -0.0626153681960105
    y: 0.010323138011795185
    z: 0.2973023799078196
    w: 0.9526720544806664
---
header:
  stamp:
    sec: 1741022344
    nanosec: 77240113
  frame_id: map
pose:
  position:
    x: 0.28356830213035145
    y: 2.5601003228322106
    z: 0.09385522619431051
  orientation:
    x: -0.06236369708336875
    y: 0.010399025227067926
    z: 0.29729493284973496
    w: 0.9526900610703839
---
header:
  stamp:
    sec: 1741022345
    nanosec: 694731847
  frame_id: map
pose:
  position:
    x: 0.32320908485491767
    y: 2.5723758191963793
    z: 0.1000422561948856
  orientation:
    x: -0.0633083471535082
    y: 0.010104208069725118
    z: 0.29730094734584417
    w: 0.9526290489310295
---
header:
  stamp:
    sec: 1741022346
    nanosec: 821640665
  frame_id: map
pose:
  position:
    x: 0.3321856662890579
    y: 2.5594610970577665
    z: 0.1015990027683818
  orientation:
    x: -0.06279075605998422
    y: 0.010264437193990283
    z: 0.29729023221726647
    w: 0.952664935909111
---
header:
  stamp:
    sec: 1741022348
    nanosec: 921766345
  frame_id: map
pose:
  position:
    x: 0.3059956692757674
    y: 2.5650374815230736
    z: 0.10124397734421546
  orientation:
    x: -0.062045856095864875
    y: 0.010470044855868332
    z: 0.28848851626705924
    w: 0.9554135575153193
---
header:
  stamp:
    sec: 1741022350
    nanosec: 168958448
  frame_id: map
pose:
  position:
    x: 0.31510726587706506
    y: 2.551378172324127
    z: 0.10267147290117541
  orientation:
    x: -0.06136462653595769
    y: 0.010674247381497248
    z: 0.2884763912754367
    w: 0.9554589550209063
---
header:
  stamp:
    sec: 1741022351
    nanosec: 370174972
  frame_id: map
pose:
  position:
    x: 0.3243192372885709
    y: 2.537533713286003
    z: 0.10378609555463775
  orientation:
    x: -0.06042420905061743
    y: 0.010956944286055537
    z: 0.2884612894660867
    w: 0.9555202482480852
---
header:
  stamp:
    sec: 1741022352
    nanosec: 486257928
  frame_id: map
pose:
  position:
    x: 0.33396009655460085
    y: 2.523050881388064
    z: 0.10500837672390409
  orientation:
    x: -0.059543670097462295
    y: 0.011221160394873197
    z: 0.2884471374856816
    w: 0.9555767294084936
---
header:
  stamp:
    sec: 1741022353
    nanosec: 505359369
  frame_id: map
pose:
  position:
    x: 0.3430709020233066
    y: 2.5093893525546718
    z: 0.10642275085500423
  orientation:
    x: -0.05896499896586866
    y: 0.011394534415337998
    z: 0.28843535365290013
    w: 0.9556141168094677
---
header:
  stamp:
    sec: 1741022354
    nanosec: 482388274
  frame_id: map
pose:
  position:
    x: 0.3515619842541866
    y: 2.496671767612259
    z: 0.10788231296485555
  orientation:
    x: -0.058521875941959546
    y: 0.011526989648024566
    z: 0.2884245165031084
    w: 0.9556430383913419
---
header:
  stamp:
    sec: 1741022355
    nanosec: 570393033
  frame_id: map
pose:
  position:
    x: 0.3607636455801733
    y: 2.4828495215304125
    z: 0.1090703000347341
  orientation:
    x: -0.05779464827058643
    y: 0.011744280148473063
    z: 0.288411183430972
    w: 0.9556886730452655
---
header:
  stamp:
    sec: 1741022356
    nanosec: 561262606
  frame_id: map
pose:
  position:
    x: 0.3700072047217965
    y: 2.468917815871917
    z: 0.109801272359417
  orientation:
    x: -0.056720975210920975
    y: 0.012066279264366986
    z: 0.28839315186524495
    w: 0.9557544275770142
---
header:
  stamp:
    sec: 1741022357
    nanosec: 711577045
  frame_id: map
pose:
  position:
    x: 0.40869208734490403
    y: 2.4822765897691927
    z: 0.11649716144834893
  orientation:
    x: -0.058445265189284015
    y: 0.011544310392643586
    z: 0.28841015446616436
    w: 0.9556518522324516
---
header:
  stamp:
    sec: 1741022359
    nanosec: 219751823
  frame_id: map
pose:
  position:
    x: 0.4146947596926194
    y: 2.473255422752073
    z: 0.11694618668623574
  orientation:
    x: -0.055069704126641694
    y: 0.01255607281655502
    z: 0.2883636148196641
    w: 0.9558535967243965
---
header:
  stamp:
    sec: 1741022360
    nanosec: 434489792
  frame_id: map
pose:
  position:
    x: 0.4540661825849402
    y: 2.48547415802055
    z: 0.12263239727973896
  orientation:
    x: -0.05575016617289078
    y: 0.012349558924958703
    z: 0.2883684948646263
    w: 0.955815368434492
---
header:
  stamp:
    sec: 1741022361
    nanosec: 884654878
  frame_id: map
pose:
  position:
    x: 0.49407830770236305
    y: 2.4967065626006115
    z: 0.12814665320359617
  orientation:
    x: -0.05664164476877956
    y: 0.012077439332158657
    z: 0.2883755265025236
    w: 0.9557643094672753
---
header:
  stamp:
    sec: 1741022363
    nanosec: 310895585
  frame_id: map
pose:
  position:
    x: 0.4967302848301674
    y: 2.52760289345805
    z: 0.12925069401151437
  orientation:
    x: -0.05698436232809125
    y: 0.011502659196818366
    z: 0.27916549311041244
    w: 0.9584816632246457
---
header:
  stamp:
    sec: 1741022364
    nanosec: 812399983
  frame_id: map
pose:
  position:
    x: 0.5426631878646853
    y: 2.507116673767623
    z: 0.1408722949069407
  orientation:
    x: -0.05782206579343033
    y: 0.013068688134842188
    z: 0.2882888984838035
    w: 0.9557067170993462
---
header:
  stamp:
    sec: 1741022366
    nanosec: 203649919
  frame_id: map
pose:
  position:
    x: 0.5781073719619156
    y: 2.5252026308695203
    z: 0.14549193802168817
  orientation:
    x: -0.059913160431080546
    y: 0.012439251691122033
    z: 0.28831504766671495
    w: 0.9555784172497118
---
header:
  stamp:
    sec: 1741022367
    nanosec: 569624628
  frame_id: map
pose:
  position:
    x: 0.5821205344940849
    y: 2.5547283619274346
    z: 0.1439241919898161
  orientation:
    x: -0.058772478841504064
    y: 0.011670842495900113
    z: 0.27900680967784586
    w: 0.958417856323457
---
header:
  stamp:
    sec: 1741022368
    nanosec: 642585706
  frame_id: map
pose:
  position:
    x: 0.5906362256855735
    y: 2.541400951511195
    z: 0.14530672561573496
  orientation:
    x: -0.05765712349960122
    y: 0.01199291407507086
    z: 0.27898780957187286
    w: 0.9584871560078558
---
header:
  stamp:
    sec: 1741022369
    nanosec: 712110266
  frame_id: map
pose:
  position:
    x: 0.5996213014793933
    y: 2.5272316306387377
    z: 0.14573380271443628
  orientation:
    x: -0.05604837412606006
    y: 0.012458484301408723
    z: 0.2789626110557554
    w: 0.9585839700097705
---
header:
  stamp:
    sec: 1741022370
    nanosec: 819593741
  frame_id: map
pose:
  position:
    x: 0.6092075827598594
    y: 2.5125915239344114
    z: 0.1508490073965223
  orientation:
    x: -0.05822617638267638
    y: 0.01182391548327233
    z: 0.2789880556512131
    w: 0.9584547836024678
---
header:
  stamp:
    sec: 1741022371
    nanosec: 698604673
  frame_id: map
pose:
  position:
    x: 0.624535039303687
    y: 2.488968431543727
    z: 0.15693761489505742
  orientation:
    x: -0.060118452226460235
    y: 0.011271904948230937
    z: 0.27900894399253895
    w: 0.9583385231915185
---
header:
  stamp:
    sec: 1741022373
    nanosec: 284073050
  frame_id: map
pose:
  position:
    x: 0.6361716422564102
    y: 2.507485558245258
    z: 0.15151011854979482
  orientation:
    x: -0.05954385248694867
    y: 0.00958197463149868
    z: 0.2699270164811644
    w: 0.9609901774559149
---
header:
  stamp:
    sec: 1741022375
    nanosec: 67857322
  frame_id: map
pose:
  position:
    x: 0.6845178723181512
    y: 2.4840911258753287
    z: 0.1794771520654908
  orientation:
    x: -0.06494778645654242
    y: 0.011696246928844967
    z: 0.2789850776477244
    w: 0.9580252132861994
---
header:
  stamp:
    sec: 1741022376
    nanosec: 891771220
  frame_id: map
pose:
  position:
    x: 0.7302467212165683
    y: 2.485514371410941
    z: 0.18190914560941945
  orientation:
    x: -0.06647864392979311
    y: 0.011251812527283689
    z: 0.2790037530900281
    w: 0.9579200866344666
---
header:
  stamp:
    sec: 1741022378
    nanosec: 5391562
  frame_id: map
pose:
  position:
    x: 0.7747903118456001
    y: 2.488794550021493
    z: 0.18416907899339557
  orientation:
    x: -0.06880048025381147
    y: 0.010576480719811654
    z: 0.2790309106015473
    w: 0.9577559098754235
---
header:
  stamp:
    sec: 1741022379
    nanosec: 72900165
  frame_id: map
pose:
  position:
    x: 0.8194046826099982
    y: 2.491973468486221
    z: 0.18651070044441445
  orientation:
    x: -0.07106101059222004
    y: 0.009918509478979987
    z: 0.27905567977598855
    w: 0.9575906659570619
---
header:
  stamp:
    sec: 1741022380
    nanosec: 761076149
  frame_id: map
pose:
  position:
    x: 0.8657900770323188
    y: 2.492357542371614
    z: 0.18893074114370728
  orientation:
    x: -0.07301467902439938
    y: 0.009350871386673343
    z: 0.27907565754331803
    w: 0.9574435728637162
---
header:
  stamp:
    sec: 1741022381
    nanosec: 931641408
  frame_id: map
pose:
  position:
    x: 0.9157924960220126
    y: 2.487586491453577
    z: 0.1965396609934404
  orientation:
    x: -0.0757551209450995
    y: 0.008553498693575357
    z: 0.2791023491306509
    w: 0.9572303160788654
---
header:
  stamp:
    sec: 1741022382
    nanosec: 973848521
  frame_id: map
pose:
  position:
    x: 0.9345396218425766
    y: 2.4590378039196277
    z: 0.20686326082458417
  orientation:
    x: -0.07899570475708347
    y: 0.007606779985529721
    z: 0.27912853889290884
    w: 0.9569686903466033
---
header:
  stamp:
    sec: 1741022384
    nanosec: 164369708
  frame_id: map
pose:
  position:
    x: 0.9503323453460767
    y: 2.4351761823192164
    z: 0.21727248588615866
  orientation:
    x: -0.08265302394582899
    y: 0.006538629813033436
    z: 0.2791547308277594
    w: 0.9566600024090375
---
header:
  stamp:
    sec: 1741022385
    nanosec: 123249909
  frame_id: map
pose:
  position:
    x: 0.9408469275324198
    y: 2.4498881282530025
    z: 0.2144774127882244
  orientation:
    x: -0.08314105360172924
    y: 0.006396618005139687
    z: 0.2791585972793564
    w: 0.9566175442929704
---
header:
  stamp:
    sec: 1741022386
    nanosec: 219387440
  frame_id: map
pose:
  position:
    x: 0.9305295522875087
    y: 2.4658185074266887
    z: 0.21078940389441542
  orientation:
    x: -0.08387444923892409
    y: 0.006183748514199561
    z: 0.2791645341690978
    w: 0.9565531876907479
---
header:
  stamp:
    sec: 1741022387
    nanosec: 126217561
  frame_id: map
pose:
  position:
    x: 0.9214126133260655
    y: 2.4798539547676417
    z: 0.20715982373028627
  orientation:
    x: -0.08408790754682853
    y: 0.006122966491890258
    z: 0.27916717280363357
    w: 0.9565340677229229
---
header:
  stamp:
    sec: 1741022388
    nanosec: 82575830
  frame_id: map
pose:
  position:
    x: 0.9126361862527167
    y: 2.4931975348469364
    z: 0.2021389586410114
  orientation:
    x: -0.0848638457418553
    y: 0.005897654366649241
    z: 0.27917305769416173
    w: 0.9564652368050636
---
header:
  stamp:
    sec: 1741022389
    nanosec: 123059754
  frame_id: map
pose:
  position:
    x: 0.9031603431159503
    y: 2.507793937959635
    z: 0.19844371789502555
  orientation:
    x: -0.08516272383734352
    y: 0.005811945882718161
    z: 0.27917628594311156
    w: 0.9564382536895263
---
header:
  stamp:
    sec: 1741022390
    nanosec: 559392877
  frame_id: map
pose:
  position:
    x: 0.8871543393465245
    y: 2.531926072706968
    z: 0.18745509253473672
  orientation:
    x: -0.08365444828944886
    y: 0.006254885063373572
    z: 0.279168921716728
    w: 0.9565707097971125
---
header:
  stamp:
    sec: 1741022391
    nanosec: 489375714
  frame_id: map
pose:
  position:
    x: 0.8777503956803488
    y: 2.5464095210265882
    z: 0.183770657233782
  orientation:
    x: -0.08368280778733485
    y: 0.006248231941984983
    z: 0.2791702862989454
    w: 0.9565678745003889
---
header:
  stamp:
    sec: 1741022392
    nanosec: 464406130
  frame_id: map
pose:
  position:
    x: 0.868844823622174
    y: 2.560176450108799
    z: 0.18074978033964534
  orientation:
    x: -0.08392906096449433
    y: 0.00617850361386163
    z: 0.2791737664669055
    w: 0.9565457369804089
---
header:
  stamp:
    sec: 1741022393
    nanosec: 430818173
  frame_id: map
pose:
  position:
    x: 0.8595979412451246
    y: 2.574411923146868
    z: 0.17707723896704713
  orientation:
    x: -0.08383988340420201
    y: 0.006206283603666707
    z: 0.2791747702189831
    w: 0.9565530846052293
---
header:
  stamp:
    sec: 1741022394
    nanosec: 370205263
  frame_id: map
pose:
  position:
    x: 0.8510514584617833
    y: 2.5871833599346443
    z: 0.17018197953510802
