header:
  stamp:
    sec: 34
    nanosec: 0
  frame_id: base_link
pose:
  pose:
    position:
      x: 4.440892098500626e-16
      y: 0.0
      z: 0.0
    orientation:
      x: -1.2780168202617065e-18
      y: -2.1191911152769513e-18
      z: 1.7886275677269648e-17
      w: 1.0
  covariance:
  - 0.0
  - 0.0
  - 0.0
  - 0.0
  - 0.0
  - 0.0
  - 0.0
  - 0.0
  - 0.0
  - 0.0
  - 0.0
  - 0.0
  - 0.0
  - 0.0
  - 0.0
  - 0.0
  - 0.0
  - 0.0
  - 0.0
  - 0.0
  - 0.0
  - 0.0
  - 0.0
  - 0.0
  - 0.0
  - 0.0
  - 0.0
  - 0.0
  - 0.0
  - 0.0
  - 0.0
  - 0.0
  - 0.0
  - 0.0
  - 0.0
  - 0.0
---
header:
  stamp:
    sec: 36
    nanosec: 0
  frame_id: base_link
pose:
  pose:
    position:
      x: 0.025411159882680057
      y: 0.00127403322356745
      z: 0.004480670858139968
    orientation:
      x: -0.0015153231300706017
      y: 1.8593081138184095e-17
      z: 0.00859382881520823
      w: 0.9999619242261708
  covariance:
  - 0.0
  - 0.0
  - 0.0
  - 0.0
  - 0.0
  - 0.0
  - 0.0
  - 0.0
  - 0.0
  - 0.0
  - 0.0
  - 0.0
  - 0.0
  - 0.0
  - 0.0
  - 0.0
  - 0.0
  - 0.0
  - 0.0
  - 0.0
  - 0.0
  - 0.0
  - 0.0
  - 0.0
  - 0.0
  - 0.0
  - 0.0
  - 0.0
  - 0.0
  - 0.0
  - 0.0
  - 0.0
  - 0.0
  - 0.0
  - 0.0
  - 0.0
---
header:
  stamp:
    sec: 40
    nanosec: 0
  frame_id: base_link
pose:
  pose:
    position:
      x: 0.05249525271236788
      y: 0.004542730240354231
      z: 0.009256324784266301
    orientation:
      x: -0.004545554051630709
      y: -2.0132401627807317e-18
      z: 0.025779130942302737
      w: 0.9996573284612199
  covariance:
  - 0.0
  - 0.0
  - 0.0
  - 0.0
  - 0.0
  - 0.0
  - 0.0
  - 0.0
  - 0.0
  - 0.0
  - 0.0
  - 0.0
  - 0.0
  - 0.0
  - 0.0
  - 0.0
  - 0.0
  - 0.0
  - 0.0
  - 0.0
  - 0.0
  - 0.0
  - 0.0
  - 0.0
  - 0.0
  - 0.0
  - 0.0
  - 0.0
  - 0.0
  - 0.0
  - 0.0
  - 0.0
  - 0.0
  - 0.0
  - 0.0
  - 0.0
---
header:
  stamp:
    sec: 41
    nanosec: 0
  frame_id: base_link
pose:
  pose:
    position:
      x: 0.052459572031122725
      y: 0.0051787224629915585
      z: 0.009250033320618245
    orientation:
      x: -0.00530293148423172
      y: -8.94884170838908e-18
      z: 0.030074433953992116
      w: 0.9995335949031532
  covariance:
  - 0.0
  - 0.0
  - 0.0
  - 0.0
  - 0.0
  - 0.0
  - 0.0
  - 0.0
  - 0.0
  - 0.0
  - 0.0
  - 0.0
  - 0.0
  - 0.0
  - 0.0
  - 0.0
  - 0.0
  - 0.0
  - 0.0
  - 0.0
  - 0.0
  - 0.0
  - 0.0
  - 0.0
  - 0.0
  - 0.0
  - 0.0
  - 0.0
  - 0.0
  - 0.0
  - 0.0
  - 0.0
  - 0.0
  - 0.0
  - 0.0
  - 0.0
---
header:
  stamp:
    sec: 42
    nanosec: 0
  frame_id: base_link
pose:
  pose:
    position:
      x: 0.05241866123013805
      y: 0.005814468180304733
      z: 0.0092428196462091
    orientation:
      x: -0.00606020795666126
      y: 1.8605401079300892e-17
      z: 0.03436916439181041
      w: 0.999390831666236
  covariance:
  - 0.0
  - 0.0
  - 0.0
  - 0.0
  - 0.0
  - 0.0
  - 0.0
  - 0.0
  - 0.0
  - 0.0
  - 0.0
  - 0.0
  - 0.0
  - 0.0
  - 0.0
  - 0.0
  - 0.0
  - 0.0
  - 0.0
  - 0.0
  - 0.0
  - 0.0
  - 0.0
  - 0.0
  - 0.0
  - 0.0
  - 0.0
  - 0.0
  - 0.0
  - 0.0
  - 0.0
  - 0.0
  - 0.0
  - 0.0
  - 0.0
  - 0.0
---
header:
  stamp:
    sec: 43
    nanosec: 0
  frame_id: base_link
pose:
  pose:
    position:
      x: 0.0806141450273854
      y: 0.00845511865045756
      z: 0.014214441688050306
    orientation:
      x: -0.006817392156282483
      y: -2.7559982929176504e-17
      z: 0.0386633715242666
      w: 0.999229036240723
  covariance:
  - 0.0
  - 0.0
  - 0.0
  - 0.0
  - 0.0
  - 0.0
  - 0.0
  - 0.0
  - 0.0
  - 0.0
  - 0.0
  - 0.0
  - 0.0
  - 0.0
  - 0.0
  - 0.0
  - 0.0
  - 0.0
  - 0.0
  - 0.0
  - 0.0
  - 0.0
  - 0.0
  - 0.0
  - 0.0
  - 0.0
  - 0.0
  - 0.0
  - 0.0
  - 0.0
  - 0.0
  - 0.0
  - 0.0
  - 0.0
  - 0.0
  - 0.0
---
header:
  stamp:
    sec: 44
    nanosec: 0
  frame_id: base_link
pose:
  pose:
    position:
      x: 0.10285288016284388
      y: 0.010871337486115351
      z: 0.018135728748672086
    orientation:
      x: -0.007574423454027542
      y: 1.861178155012899e-17
      z: 0.04295671150665886
      w: 0.9990482215818577
  covariance:
  - 0.0
  - 0.0
  - 0.0
  - 0.0
  - 0.0
  - 0.0
  - 0.0
  - 0.0
  - 0.0
  - 0.0
  - 0.0
  - 0.0
  - 0.0
  - 0.0
  - 0.0
  - 0.0
  - 0.0
  - 0.0
  - 0.0
  - 0.0
  - 0.0
  - 0.0
  - 0.0
  - 0.0
  - 0.0
  - 0.0
  - 0.0
  - 0.0
  - 0.0
  - 0.0
  - 0.0
  - 0.0
  - 0.0
  - 0.0
  - 0.0
  - 0.0
---
header:
  stamp:
    sec: 45
    nanosec: 0
  frame_id: base_link
pose:
  pose:
    position:
      x: 0.10279534955140512
      y: 0.011505577404073986
      z: 0.01812558455473079
    orientation:
      x: -0.008331310545668292
      y: 1.175001999898852e-17
      z: 0.047249233655184575
      w: 0.9988483864849506
  covariance:
  - 0.0
  - 0.0
  - 0.0
  - 0.0
  - 0.0
  - 0.0
  - 0.0
  - 0.0
  - 0.0
  - 0.0
  - 0.0
  - 0.0
  - 0.0
  - 0.0
  - 0.0
  - 0.0
  - 0.0
  - 0.0
  - 0.0
  - 0.0
  - 0.0
  - 0.0
  - 0.0
  - 0.0
  - 0.0
  - 0.0
  - 0.0
  - 0.0
  - 0.0
  - 0.0
  - 0.0
  - 0.0
  - 0.0
  - 0.0
  - 0.0
  - 0.0
---
header:
  stamp:
    sec: 46
    nanosec: 0
  frame_id: base_link
pose:
  pose:
    position:
      x: 0.10273258882022596
      y: 0.012139570816709355
      z: 0.01811451815002796
    orientation:
      x: -0.009088039021165605
      y: 1.8619584751913163e-17
      z: 0.05154085624640996
      w: 0.9986295347545738
  covariance:
  - 0.0
  - 0.0
  - 0.0
  - 0.0
  - 0.0
  - 0.0
  - 0.0
  - 0.0
  - 0.0
  - 0.0
  - 0.0
  - 0.0
  - 0.0
  - 0.0
  - 0.0
  - 0.0
  - 0.0
  - 0.0
  - 0.0
  - 0.0
  - 0.0
  - 0.0
  - 0.0
  - 0.0
  - 0.0
  - 0.0
  - 0.0
  - 0.0
  - 0.0
  - 0.0
  - 0.0
  - 0.0
  - 0.0
  - 0.0
  - 0.0
  - 0.0
---
header:
  stamp:
    sec: 47
    nanosec: 0
  frame_id: base_link
pose:
  pose:
    position:
      x: 0.10266423925727564
      y: 0.012772690725888936
      z: 0.01810246628398593
    orientation:
      x: -0.009844594473500093
      y: -8.959077070436778e-18
      z: 0.055831497574027
      w: 0.998391670557349
  covariance:
  - 0.0
  - 0.0
  - 0.0
  - 0.0
  - 0.0
  - 0.0
  - 0.0
  - 0.0
  - 0.0
  - 0.0
  - 0.0
  - 0.0
  - 0.0
  - 0.0
  - 0.0
  - 0.0
  - 0.0
  - 0.0
  - 0.0
  - 0.0
  - 0.0
  - 0.0
  - 0.0
  - 0.0
  - 0.0
  - 0.0
  - 0.0
  - 0.0
  - 0.0
  - 0.0
  - 0.0
  - 0.0
  - 0.0
  - 0.0
  - 0.0
  - 0.0
---
header:
  stamp:
    sec: 48
    nanosec: 0
  frame_id: base_link
pose:
  pose:
    position:
      x: 0.1025905098586466
      y: 0.013405380467956807
      z: 0.01808946580823645
    orientation:
      x: -0.010600962498946485
      y: -2.1181450037504434e-18
      z: 0.060121075950409636
      w: 0.998134798421867
  covariance:
  - 0.0
  - 0.0
  - 0.0
  - 0.0
  - 0.0
  - 0.0
  - 0.0
  - 0.0
  - 0.0
  - 0.0
  - 0.0
  - 0.0
  - 0.0
  - 0.0
  - 0.0
  - 0.0
  - 0.0
  - 0.0
  - 0.0
  - 0.0
  - 0.0
  - 0.0
  - 0.0
  - 0.0
  - 0.0
  - 0.0
  - 0.0
  - 0.0
  - 0.0
  - 0.0
  - 0.0
  - 0.0
  - 0.0
  - 0.0
  - 0.0
  - 0.0
---
header:
  stamp:
    sec: 49
    nanosec: 0
  frame_id: base_link
pose:
  pose:
    position:
      x: 0.1025113413441856
      y: 0.014037380368357777
      z: 0.01807550627009369
    orientation:
      x: -0.011357128697347833
      y: -8.963860235848792e-18
      z: 0.0644095097081687
      w: 0.9978589232386035
  covariance:
  - 0.0
  - 0.0
  - 0.0
  - 0.0
  - 0.0
  - 0.0
  - 0.0
  - 0.0
  - 0.0
  - 0.0
  - 0.0
  - 0.0
  - 0.0
  - 0.0
  - 0.0
  - 0.0
  - 0.0
  - 0.0
  - 0.0
  - 0.0
  - 0.0
  - 0.0
  - 0.0
  - 0.0
  - 0.0
  - 0.0
  - 0.0
  - 0.0
  - 0.0
  - 0.0
  - 0.0
  - 0.0
  - 0.0
  - 0.0
  - 0.0
  - 0.0
---
header:
  stamp:
    sec: 50
    nanosec: 0
  frame_id: base_link
pose:
  pose:
    position:
      x: 0.1024268241496693
      y: 0.01466861441431977
      z: 0.01806060361581796
    orientation:
      x: -0.012113055606073026
      y: 1.8639471901727315e-17
      z: 0.06869658638605926
      w: 0.9975640595484517
  covariance:
  - 0.0
  - 0.0
  - 0.0
  - 0.0
  - 0.0
  - 0.0
  - 0.0
  - 0.0
  - 0.0
  - 0.0
  - 0.0
  - 0.0
  - 0.0
  - 0.0
  - 0.0
  - 0.0
  - 0.0
  - 0.0
  - 0.0
  - 0.0
  - 0.0
  - 0.0
  - 0.0
  - 0.0
  - 0.0
  - 0.0
  - 0.0
  - 0.0
  - 0.0
  - 0.0
  - 0.0
  - 0.0
  - 0.0
  - 0.0
  - 0.0
  - 0.0
---
header:
  stamp:
    sec: 51
    nanosec: 0
  frame_id: base_link
pose:
  pose:
    position:
      x: 0.10233671812337519
      y: 0.015298974956819311
      z: 0.018044715500201702
    orientation:
      x: -0.012868798031874372
      y: 4.838003281071522e-18
      z: 0.07298261680877463
      w: 0.9972501850994855
  covariance:
  - 0.0
  - 0.0
  - 0.0
  - 0.0
  - 0.0
  - 0.0
  - 0.0
  - 0.0
  - 0.0
  - 0.0
  - 0.0
  - 0.0
  - 0.0
  - 0.0
  - 0.0
  - 0.0
  - 0.0
  - 0.0
  - 0.0
  - 0.0
  - 0.0
  - 0.0
  - 0.0
  - 0.0
  - 0.0
  - 0.0
  - 0.0
  - 0.0
  - 0.0
  - 0.0
  - 0.0
  - 0.0
  - 0.0
  - 0.0
  - 0.0
  - 0.0
---
header:
  stamp:
    sec: 52
    nanosec: 0
  frame_id: base_link
pose:
  pose:
    position:
      x: 0.10224126341702044
      y: 0.015928569644870993
      z: 0.018027884268451144
    orientation:
      x: -0.013624249336631455
      y: 1.1636835604591029e-17
      z: 0.0772669962011789
      w: 0.9969173441805796
  covariance:
  - 0.0
  - 0.0
  - 0.0
  - 0.0
  - 0.0
  - 0.0
  - 0.0
  - 0.0
  - 0.0
  - 0.0
  - 0.0
  - 0.0
  - 0.0
  - 0.0
  - 0.0
  - 0.0
  - 0.0
  - 0.0
  - 0.0
  - 0.0
  - 0.0
  - 0.0
  - 0.0
  - 0.0
  - 0.0
  - 0.0
  - 0.0
  - 0.0
  - 0.0
  - 0.0
  - 0.0
  - 0.0
  - 0.0
  - 0.0
  - 0.0
  - 0.0
---
header:
  stamp:
    sec: 53
    nanosec: 0
  frame_id: base_link
pose:
  pose:
    position:
      x: 0.10214046003060995
      y: 0.016557398478484586
      z: 0.018010109920567174
    orientation:
      x: -0.014379487357607164
      y: 1.860375168820754e-17
      z: 0.08155016600054656
      w: 0.9965655024977613
  covariance:
  - 0.0
  - 0.0
  - 0.0
  - 0.0
  - 0.0
  - 0.0
  - 0.0
  - 0.0
  - 0.0
  - 0.0
  - 0.0
  - 0.0
  - 0.0
  - 0.0
  - 0.0
  - 0.0
  - 0.0
  - 0.0
  - 0.0
  - 0.0
  - 0.0
  - 0.0
  - 0.0
  - 0.0
  - 0.0
  - 0.0
  - 0.0
  - 0.0
  - 0.0
  - 0.0
  - 0.0
  - 0.0
  - 0.0
  - 0.0
  - 0.0
  - 0.0
---
header:
  stamp:
    sec: 54
    nanosec: 0
  frame_id: base_link
pose:
  pose:
    position:
      x: 0.10203424868398292
      y: 0.017185201783097792
      z: 0.017991382003863077
    orientation:
      x: -0.015134428562508209
      y: -1.38219643378365e-17
      z: 0.08583165247146467
      w: 0.9961946980917455
  covariance:
  - 0.0
  - 0.0
  - 0.0
  - 0.0
  - 0.0
  - 0.0
  - 0.0
  - 0.0
  - 0.0
  - 0.0
  - 0.0
  - 0.0
  - 0.0
  - 0.0
  - 0.0
  - 0.0
  - 0.0
  - 0.0
  - 0.0
  - 0.0
  - 0.0
  - 0.0
  - 0.0
  - 0.0
  - 0.0
  - 0.0
  - 0.0
  - 0.0
  - 0.0
  - 0.0
  - 0.0
  - 0.0
  - 0.0
  - 0.0
  - 0.0
  - 0.0
---
header:
  stamp:
    sec: 55
    nanosec: 0
  frame_id: base_link
pose:
  pose:
    position:
      x: 0.10192253894135739
      y: 0.01781205557147514
      z: 0.01797168457207854
    orientation:
      x: -0.01588905860406406
      y: -2.1775392533161816e-18
      z: 0.09011137424647794
      w: 0.9958049397588304
  covariance:
  - 0.0
  - 0.0
  - 0.0
  - 0.0
  - 0.0
  - 0.0
  - 0.0
  - 0.0
  - 0.0
  - 0.0
  - 0.0
  - 0.0
  - 0.0
  - 0.0
  - 0.0
  - 0.0
  - 0.0
  - 0.0
  - 0.0
  - 0.0
  - 0.0
  - 0.0
  - 0.0
  - 0.0
  - 0.0
  - 0.0
  - 0.0
  - 0.0
  - 0.0
  - 0.0
  - 0.0
  - 0.0
  - 0.0
  - 0.0
  - 0.0
  - 0.0
---
header:
  stamp:
    sec: 56
    nanosec: 0
  frame_id: base_link
pose:
  pose:
    position:
      x: 0.10180557095445408
      y: 0.018438067492640986
      z: 0.017951059970420458
    orientation:
      x: -0.016643432191691683
      y: 4.792553524678517e-18
      z: 0.09438964159826325
      w: 0.9953961983671787
  covariance:
  - 0.0
  - 0.0
  - 0.0
  - 0.0
  - 0.0
  - 0.0
  - 0.0
  - 0.0
  - 0.0
  - 0.0
  - 0.0
  - 0.0
  - 0.0
  - 0.0
  - 0.0
  - 0.0
  - 0.0
  - 0.0
  - 0.0
  - 0.0
  - 0.0
  - 0.0
  - 0.0
  - 0.0
  - 0.0
  - 0.0
  - 0.0
  - 0.0
  - 0.0
  - 0.0
  - 0.0
  - 0.0
  - 0.0
  - 0.0
  - 0.0
  - 0.0
---
header:
  stamp:
    sec: 68
    nanosec: 0
  frame_id: base_link
pose:
  pose:
    position:
      x: 0.09998515364846927
      y: 0.025852072843425056
      z: 0.017630071443716533
    orientation:
      x: -0.025666822438589174
      y: 1.8855387519630303e-17
      z: 0.1455638562431903
      w: 0.9890158633619168
  covariance:
  - 0.0
  - 0.0
  - 0.0
  - 0.0
  - 0.0
  - 0.0
  - 0.0
  - 0.0
  - 0.0
  - 0.0
  - 0.0
  - 0.0
  - 0.0
  - 0.0
  - 0.0
  - 0.0
  - 0.0
  - 0.0
  - 0.0
  - 0.0
  - 0.0
  - 0.0
  - 0.0
  - 0.0
  - 0.0
  - 0.0
  - 0.0
  - 0.0
  - 0.0
  - 0.0
  - 0.0
  - 0.0
  - 0.0
  - 0.0
  - 0.0
  - 0.0
---
header:
  stamp:
    sec: 81
    nanosec: 0
  frame_id: base_link
pose:
  pose:
    position:
      x: 0.20964877014593508
      y: 0.07667557906554645
      z: 0.036966716166232816
    orientation:
      x: -0.03536197919690011
      y: 0.0
      z: 0.2005478499961599
      w: 0.9790454996011144
  covariance:
  - 0.0
  - 0.0
  - 0.0
  - 0.0
  - 0.0
  - 0.0
  - 0.0
  - 0.0
  - 0.0
  - 0.0
  - 0.0
  - 0.0
  - 0.0
  - 0.0
  - 0.0
  - 0.0
  - 0.0
  - 0.0
  - 0.0
  - 0.0
  - 0.0
  - 0.0
  - 0.0
  - 0.0
  - 0.0
  - 0.0
  - 0.0
  - 0.0
  - 0.0
  - 0.0
  - 0.0
  - 0.0
  - 0.0
  - 0.0
  - 0.0
  - 0.0
---
header:
  stamp:
    sec: 82
    nanosec: 0
  frame_id: base_link
pose:
  pose:
    position:
      x: 0.20939611812932268
      y: 0.07725871890292924
      z: 0.036922166821247604
    orientation:
      x: -0.03610344610187661
      y: 4.877064995441724e-18
      z: 0.20475291987667668
      w: 0.9781476284189132
  covariance:
  - 0.0
  - 0.0
  - 0.0
  - 0.0
  - 0.0
  - 0.0
  - 0.0
  - 0.0
  - 0.0
  - 0.0
  - 0.0
  - 0.0
  - 0.0
  - 0.0
  - 0.0
  - 0.0
  - 0.0
  - 0.0
  - 0.0
  - 0.0
  - 0.0
  - 0.0
  - 0.0
  - 0.0
  - 0.0
  - 0.0
  - 0.0
  - 0.0
  - 0.0
  - 0.0
  - 0.0
  - 0.0
  - 0.0
  - 0.0
  - 0.0
  - 0.0
---
header:
  stamp:
    sec: 83
    nanosec: 0
  frame_id: base_link
pose:
  pose:
    position:
      x: 0.20913842292667884
      y: 0.07783959811099139
      z: 0.0368767282269411
    orientation:
      x: -0.03684424824544693
      y: -2.2189268542832877e-18
      z: 0.20895421970603106
      w: 0.9772311064626789
  covariance:
  - 0.0
  - 0.0
  - 0.0
  - 0.0
  - 0.0
  - 0.0
  - 0.0
  - 0.0
  - 0.0
  - 0.0
  - 0.0
  - 0.0
  - 0.0
  - 0.0
  - 0.0
  - 0.0
  - 0.0
  - 0.0
  - 0.0
  - 0.0
  - 0.0
  - 0.0
  - 0.0
  - 0.0
  - 0.0
  - 0.0
  - 0.0
  - 0.0
  - 0.0
  - 0.0
  - 0.0
  - 0.0
  - 0.0
  - 0.0
  - 0.0
  - 0.0
---
header:
  stamp:
    sec: 84
    nanosec: 0
  frame_id: base_link
pose:
  pose:
    position:
      x: 0.20887577497378684
      y: 0.07841814067696706
      z: 0.03683041632957362
    orientation:
      x: -0.03758430373573956
      y: 5.330525000971161e-18
      z: 0.21315128505210912
      w: 0.9762960359406024
  covariance:
  - 0.0
  - 0.0
  - 0.0
  - 0.0
  - 0.0
  - 0.0
  - 0.0
  - 0.0
  - 0.0
  - 0.0
  - 0.0
  - 0.0
  - 0.0
  - 0.0
  - 0.0
  - 0.0
  - 0.0
  - 0.0
  - 0.0
  - 0.0
  - 0.0
  - 0.0
  - 0.0
  - 0.0
  - 0.0
  - 0.0
  - 0.0
  - 0.0
  - 0.0
  - 0.0
  - 0.0
  - 0.0
  - 0.0
  - 0.0
  - 0.0
  - 0.0
---
header:
  stamp:
    sec: 85
    nanosec: 0
  frame_id: base_link
pose:
  pose:
    position:
      x: 0.23781008726972086
      y: 0.092821528322935
      z: 0.04193231370471384
    orientation:
      x: -0.038323666271231245
      y: 5.3357371680667455e-18
      z: 0.21734442045425784
      w: 0.9753423498961451
  covariance:
  - 0.0
  - 0.0
  - 0.0
  - 0.0
  - 0.0
  - 0.0
  - 0.0
  - 0.0
  - 0.0
  - 0.0
  - 0.0
  - 0.0
  - 0.0
  - 0.0
  - 0.0
  - 0.0
  - 0.0
  - 0.0
  - 0.0
  - 0.0
  - 0.0
  - 0.0
  - 0.0
  - 0.0
  - 0.0
  - 0.0
  - 0.0
  - 0.0
  - 0.0
  - 0.0
  - 0.0
  - 0.0
  - 0.0
  - 0.0
  - 0.0
  - 0.0
---
header:
  stamp:
    sec: 86
    nanosec: 0
  frame_id: base_link
pose:
  pose:
    position:
      x: 0.2626600710133613
      y: 0.10556286437327422
      z: 0.046314034118085434
    orientation:
      x: -0.03906232170937017
      y: -1.6023184463525653e-17
      z: 0.22153354570604003
      w: 0.9743700647852352
  covariance:
  - 0.0
  - 0.0
  - 0.0
  - 0.0
  - 0.0
  - 0.0
  - 0.0
  - 0.0
  - 0.0
  - 0.0
  - 0.0
  - 0.0
  - 0.0
  - 0.0
  - 0.0
  - 0.0
  - 0.0
  - 0.0
  - 0.0
  - 0.0
  - 0.0
  - 0.0
  - 0.0
  - 0.0
  - 0.0
  - 0.0
  - 0.0
  - 0.0
  - 0.0
  - 0.0
  - 0.0
  - 0.0
  - 0.0
  - 0.0
  - 0.0
  - 0.0
---
header:
  stamp:
    sec: 87
    nanosec: 0
  frame_id: base_link
pose:
  pose:
    position:
      x: 0.2623825055295401
      y: 0.10613413733839838
      z: 0.04626509185884453
    orientation:
      x: -0.03980021090471909
      y: -2.316815875383154e-17
      z: 0.2257183253768451
      w: 0.9733792584604486
  covariance:
  - 0.0
  - 0.0
  - 0.0
  - 0.0
  - 0.0
  - 0.0
  - 0.0
  - 0.0
  - 0.0
  - 0.0
  - 0.0
  - 0.0
  - 0.0
  - 0.0
  - 0.0
  - 0.0
  - 0.0
  - 0.0
  - 0.0
  - 0.0
  - 0.0
  - 0.0
  - 0.0
  - 0.0
  - 0.0
  - 0.0
  - 0.0
  - 0.0
  - 0.0
  - 0.0
  - 0.0
  - 0.0
  - 0.0
  - 0.0
  - 0.0
  - 0.0
---
header:
  stamp:
    sec: 88
    nanosec: 0
  frame_id: base_link
pose:
  pose:
    position:
      x: 0.26210007773124255
      y: 0.10670299764865643
      z: 0.04621529224280163
    orientation:
      x: -0.040537342361423125
      y: 5.352047938506816e-18
      z: 0.22989880769610097
      w: 0.9723699203976767
  covariance:
  - 0.0
  - 0.0
  - 0.0
  - 0.0
  - 0.0
  - 0.0
  - 0.0
  - 0.0
  - 0.0
  - 0.0
  - 0.0
  - 0.0
  - 0.0
  - 0.0
  - 0.0
  - 0.0
  - 0.0
  - 0.0
  - 0.0
  - 0.0
  - 0.0
  - 0.0
  - 0.0
  - 0.0
  - 0.0
  - 0.0
  - 0.0
  - 0.0
  - 0.0
  - 0.0
  - 0.0
  - 0.0
  - 0.0
  - 0.0
  - 0.0
  - 0.0
---
header:
  stamp:
    sec: 89
    nanosec: 0
  frame_id: base_link
pose:
  pose:
    position:
      x: 0.26181287805424036
      y: 0.1072693692912674
      z: 0.04616465121621527
    orientation:
      x: -0.04127367958556646
      y: -1.7859037236870017e-18
      z: 0.23407478569642257
      w: 0.9713421014630438
  covariance:
  - 0.0
  - 0.0
  - 0.0
  - 0.0
  - 0.0
  - 0.0
  - 0.0
  - 0.0
  - 0.0
  - 0.0
  - 0.0
  - 0.0
  - 0.0
  - 0.0
  - 0.0
  - 0.0
  - 0.0
  - 0.0
  - 0.0
  - 0.0
  - 0.0
  - 0.0
  - 0.0
  - 0.0
  - 0.0
  - 0.0
  - 0.0
  - 0.0
  - 0.0
  - 0.0
  - 0.0
  - 0.0
  - 0.0
  - 0.0
  - 0.0
  - 0.0
---
header:
  stamp:
    sec: 90
    nanosec: 0
  frame_id: base_link
pose:
  pose:
    position:
      x: 0.28251486005633497
      y: 0.11893048950590757
      z: 0.049814967372218355
    orientation:
      x: -0.04200925350210725
      y: -1.7878295981389443e-18
      z: 0.2382464347620508
      w: 0.9702957584898366
  covariance:
  - 0.0
  - 0.0
  - 0.0
  - 0.0
  - 0.0
  - 0.0
  - 0.0
  - 0.0
  - 0.0
  - 0.0
  - 0.0
  - 0.0
  - 0.0
  - 0.0
  - 0.0
  - 0.0
  - 0.0
  - 0.0
  - 0.0
  - 0.0
  - 0.0
  - 0.0
  - 0.0
  - 0.0
  - 0.0
  - 0.0
  - 0.0
  - 0.0
  - 0.0
  - 0.0
  - 0.0
  - 0.0
  - 0.0
  - 0.0
  - 0.0
  - 0.0
---
header:
  stamp:
    sec: 91
    nanosec: 0
  frame_id: base_link
pose:
  pose:
    position:
      x: 0.303623335637238
      y: 0.1310487659599886
      z: 0.053536959277813434
    orientation:
      x: -0.042744027623016434
      y: 5.369381227752249e-18
      z: 0.24241354795898615
      w: 0.9692309424840393
  covariance:
  - 0.0
  - 0.0
  - 0.0
  - 0.0
  - 0.0
  - 0.0
  - 0.0
  - 0.0
  - 0.0
  - 0.0
  - 0.0
  - 0.0
  - 0.0
  - 0.0
  - 0.0
  - 0.0
  - 0.0
  - 0.0
  - 0.0
  - 0.0
  - 0.0
  - 0.0
  - 0.0
  - 0.0
  - 0.0
  - 0.0
  - 0.0
  - 0.0
  - 0.0
  - 0.0
  - 0.0
  - 0.0
  - 0.0
  - 0.0
  - 0.0
  - 0.0
---
header:
  stamp:
    sec: 92
    nanosec: 0
  frame_id: base_link
pose:
  pose:
    position:
      x: 0.3033215208922697
      y: 0.13160730427611078
      z: 0.05348374122170796
    orientation:
      x: -0.0434779879592539
      y: 5.375389074626991e-18
      z: 0.24657604595140017
      w: 0.9681476737182132
  covariance:
  - 0.0
  - 0.0
  - 0.0
  - 0.0
  - 0.0
  - 0.0
  - 0.0
  - 0.0
  - 0.0
  - 0.0
  - 0.0
  - 0.0
  - 0.0
  - 0.0
  - 0.0
  - 0.0
  - 0.0
  - 0.0
  - 0.0
  - 0.0
  - 0.0
  - 0.0
  - 0.0
  - 0.0
  - 0.0
  - 0.0
  - 0.0
  - 0.0
  - 0.0
  - 0.0
  - 0.0
  - 0.0
  - 0.0
  - 0.0
  - 0.0
  - 0.0
---
header:
  stamp:
    sec: 93
    nanosec: 0
  frame_id: base_link
pose:
  pose:
    position:
      x: 0.30301496542421313
      y: 0.13216301823725152
      z: 0.053429687248632174
    orientation:
      x: -0.044211120537272795
      y: 5.381512952041793e-18
      z: 0.2507338494913309
      w: 0.9670459728162345
  covariance:
  - 0.0
  - 0.0
  - 0.0
  - 0.0
  - 0.0
  - 0.0
  - 0.0
  - 0.0
  - 0.0
  - 0.0
  - 0.0
  - 0.0
  - 0.0
  - 0.0
  - 0.0
  - 0.0
  - 0.0
  - 0.0
  - 0.0
  - 0.0
  - 0.0
  - 0.0
  - 0.0
  - 0.0
  - 0.0
  - 0.0
  - 0.0
  - 0.0
  - 0.0
  - 0.0
  - 0.0
  - 0.0
  - 0.0
  - 0.0
  - 0.0
  - 0.0
---
header:
  stamp:
    sec: 94
    nanosec: 0
  frame_id: base_link
pose:
  pose:
    position:
      x: 0.3027037285132357
      y: 0.1327161675179811
      z: 0.05337480781127368
    orientation:
      x: -0.04494341139928558
      y: 1.9755096132193067e-17
      z: 0.25488687942019234
      w: 0.9659258607529
  covariance:
  - 0.0
  - 0.0
  - 0.0
  - 0.0
  - 0.0
  - 0.0
  - 0.0
  - 0.0
  - 0.0
  - 0.0
  - 0.0
  - 0.0
  - 0.0
  - 0.0
  - 0.0
  - 0.0
  - 0.0
  - 0.0
  - 0.0
  - 0.0
  - 0.0
  - 0.0
  - 0.0
  - 0.0
  - 0.0
  - 0.0
  - 0.0
  - 0.0
  - 0.0
  - 0.0
  - 0.0
  - 0.0
  - 0.0
  - 0.0
  - 0.0
  - 0.0
---
header:
  stamp:
    sec: 95
    nanosec: 0
  frame_id: base_link
pose:
  pose:
    position:
      x: 0.329379261271304
      y: 0.14909051998966039
      z: 0.05807842160955223
    orientation:
      x: -0.045674846603529856
      y: -1.438429689243196e-17
      z: 0.2590350566702809
      w: 0.9647873588535292
  covariance:
  - 0.0
  - 0.0
  - 0.0
  - 0.0
  - 0.0
  - 0.0
  - 0.0
  - 0.0
  - 0.0
  - 0.0
  - 0.0
  - 0.0
  - 0.0
  - 0.0
  - 0.0
  - 0.0
  - 0.0
  - 0.0
  - 0.0
  - 0.0
  - 0.0
  - 0.0
  - 0.0
  - 0.0
  - 0.0
  - 0.0
  - 0.0
  - 0.0
  - 0.0
  - 0.0
  - 0.0
  - 0.0
  - 0.0
  - 0.0
  - 0.0
  - 0.0
---
header:
  stamp:
    sec: 96
    nanosec: 0
  frame_id: base_link
pose:
  pose:
    position:
      x: 0.3552132708172997
      y: 0.16528206319811023
      z: 0.06263365223483941
    orientation:
      x: -0.046405412224533676
      y: 1.2601369999241608e-17
      z: 0.2631783022662817
      w: 0.9636304887935566
  covariance:
  - 0.0
  - 0.0
  - 0.0
  - 0.0
  - 0.0
  - 0.0
  - 0.0
  - 0.0
  - 0.0
  - 0.0
  - 0.0
  - 0.0
  - 0.0
  - 0.0
  - 0.0
  - 0.0
  - 0.0
  - 0.0
  - 0.0
  - 0.0
  - 0.0
  - 0.0
  - 0.0
  - 0.0
  - 0.0
  - 0.0
  - 0.0
  - 0.0
  - 0.0
  - 0.0
  - 0.0
  - 0.0
  - 0.0
  - 0.0
  - 0.0
  - 0.0
---
header:
  stamp:
    sec: 97
    nanosec: 0
  frame_id: base_link
pose:
  pose:
    position:
      x: 0.3548876620211452
      y: 0.16582655575213723
      z: 0.0625762386476274
    orientation:
      x: -0.04713511660788921
      y: -1.802393929891983e-18
      z: 0.26731666353842326
      w: 0.9624552364536473
  covariance:
  - 0.0
  - 0.0
  - 0.0
  - 0.0
  - 0.0
  - 0.0
  - 0.0
  - 0.0
  - 0.0
  - 0.0
  - 0.0
  - 0.0
  - 0.0
  - 0.0
  - 0.0
  - 0.0
  - 0.0
  - 0.0
  - 0.0
  - 0.0
  - 0.0
  - 0.0
  - 0.0
  - 0.0
  - 0.0
  - 0.0
  - 0.0
  - 0.0
  - 0.0
  - 0.0
  - 0.0
  - 0.0
  - 0.0
  - 0.0
  - 0.0
  - 0.0
---
header:
  stamp:
    sec: 98
    nanosec: 0
  frame_id: base_link
pose:
  pose:
    position:
      x: 0.3545576430893975
      y: 0.16636825558742574
      z: 0.06251804743491052
    orientation:
      x: -0.047863879097975015
      y: -2.165558141435147e-17
      z: 0.2714496830657174
      w: 0.9612617326416443
  covariance:
  - 0.0
  - 0.0
  - 0.0
  - 0.0
  - 0.0
  - 0.0
  - 0.0
  - 0.0
  - 0.0
  - 0.0
  - 0.0
  - 0.0
  - 0.0
  - 0.0
  - 0.0
  - 0.0
  - 0.0
  - 0.0
  - 0.0
  - 0.0
  - 0.0
  - 0.0
  - 0.0
  - 0.0
  - 0.0
  - 0.0
  - 0.0
  - 0.0
  - 0.0
  - 0.0
  - 0.0
  - 0.0
  - 0.0
  - 0.0
  - 0.0
  - 0.0
---
header:
  stamp:
    sec: 99
    nanosec: 0
  frame_id: base_link
pose:
  pose:
    position:
      x: 0.3542228834345673
      y: 0.1669071310677417
      z: 0.06245902030522377
    orientation:
      x: -0.04859175258330564
      y: 5.420729144607551e-18
      z: 0.27557766079398505
      w: 0.9600498916474072
  covariance:
  - 0.0
  - 0.0
  - 0.0
  - 0.0
  - 0.0
  - 0.0
  - 0.0
  - 0.0
  - 0.0
  - 0.0
  - 0.0
  - 0.0
  - 0.0
  - 0.0
  - 0.0
  - 0.0
  - 0.0
  - 0.0
  - 0.0
  - 0.0
  - 0.0
  - 0.0
  - 0.0
  - 0.0
  - 0.0
  - 0.0
  - 0.0
  - 0.0
  - 0.0
  - 0.0
  - 0.0
  - 0.0
  - 0.0
  - 0.0
  - 0.0
  - 0.0
---
header:
  stamp:
    sec: 100
    nanosec: 0
  frame_id: base_link
pose:
  pose:
    position:
      x: 0.35388341421227265
      y: 0.16744284650574892
      z: 0.06239916275214119
    orientation:
      x: -0.04931870095171054
      y: -1.809227891822885e-18
      z: 0.2797003919208277
      w: 0.958819772687115
  covariance:
  - 0.0
  - 0.0
  - 0.0
  - 0.0
  - 0.0
  - 0.0
  - 0.0
  - 0.0
  - 0.0
  - 0.0
  - 0.0
  - 0.0
  - 0.0
  - 0.0
  - 0.0
  - 0.0
  - 0.0
  - 0.0
  - 0.0
  - 0.0
  - 0.0
  - 0.0
  - 0.0
  - 0.0
  - 0.0
  - 0.0
  - 0.0
  - 0.0
  - 0.0
  - 0.0
  - 0.0
  - 0.0
  - 0.0
  - 0.0
  - 0.0
  - 0.0
---
header:
  stamp:
    sec: 101
    nanosec: 0
  frame_id: base_link
pose:
  pose:
    position:
      x: 0.3766947686370288
      y: 0.18324463060787233
      z: 0.06642141799265744
    orientation:
      x: -0.050044710363140725
      y: -9.05793279467972e-18
      z: 0.28381779795538753
      w: 0.9575713991804602
  covariance:
  - 0.0
  - 0.0
  - 0.0
  - 0.0
  - 0.0
  - 0.0
  - 0.0
  - 0.0
  - 0.0
  - 0.0
  - 0.0
  - 0.0
  - 0.0
  - 0.0
  - 0.0
  - 0.0
  - 0.0
  - 0.0
  - 0.0
  - 0.0
  - 0.0
  - 0.0
  - 0.0
  - 0.0
  - 0.0
  - 0.0
  - 0.0
  - 0.0
  - 0.0
  - 0.0
  - 0.0
  - 0.0
  - 0.0
  - 0.0
  - 0.0
  - 0.0
---
header:
  stamp:
    sec: 102
    nanosec: 0
  frame_id: base_link
pose:
  pose:
    position:
      x: 0.3763461797116818
      y: 0.18377439328484213
      z: 0.0663599523906746
    orientation:
      x: -0.050769766995423495
      y: 2.176783157718497e-17
      z: 0.28792980050818906
      w: 0.9563047948946742
  covariance:
  - 0.0
  - 0.0
  - 0.0
  - 0.0
  - 0.0
  - 0.0
  - 0.0
  - 0.0
  - 0.0
  - 0.0
  - 0.0
  - 0.0
  - 0.0
  - 0.0
  - 0.0
  - 0.0
  - 0.0
  - 0.0
  - 0.0
  - 0.0
  - 0.0
  - 0.0
  - 0.0
  - 0.0
  - 0.0
  - 0.0
  - 0.0
  - 0.0
  - 0.0
  - 0.0
  - 0.0
  - 0.0
  - 0.0
  - 0.0
  - 0.0
  - 0.0
---
header:
  stamp:
    sec: 103
    nanosec: 0
  frame_id: base_link
pose:
  pose:
    position:
      x: 0.3759932118063647
      y: 0.18430102755574707
      z: 0.06629771465676093
    orientation:
      x: -0.05149385704452567
      y: -1.816426362946544e-18
      z: 0.29203632129263046
      w: 0.9550199839440772
  covariance:
  - 0.0
  - 0.0
  - 0.0
  - 0.0
  - 0.0
  - 0.0
  - 0.0
  - 0.0
  - 0.0
  - 0.0
  - 0.0
  - 0.0
  - 0.0
  - 0.0
  - 0.0
  - 0.0
  - 0.0
  - 0.0
  - 0.0
  - 0.0
  - 0.0
  - 0.0
  - 0.0
  - 0.0
  - 0.0
  - 0.0
  - 0.0
  - 0.0
  - 0.0
  - 0.0
  - 0.0
  - 0.0
  - 0.0
  - 0.0
  - 0.0
  - 0.0
---
header:
  stamp:
    sec: 104
    nanosec: 0
  frame_id: base_link
pose:
  pose:
    position:
      x: 0.3756356247693611
      y: 0.1848244257715712
      z: 0.06623466244571086
    orientation:
      x: -0.05221694467235933
      y: -1.8189079358951055e-18
      z: 0.2961371570607137
      w: 0.9537170308309912
  covariance:
  - 0.0
  - 0.0
  - 0.0
  - 0.0
  - 0.0
  - 0.0
  - 0.0
  - 0.0
  - 0.0
  - 0.0
  - 0.0
  - 0.0
  - 0.0
  - 0.0
  - 0.0
  - 0.0
  - 0.0
  - 0.0
  - 0.0
  - 0.0
  - 0.0
  - 0.0
  - 0.0
  - 0.0
  - 0.0
  - 0.0
  - 0.0
  - 0.0
  - 0.0
  - 0.0
  - 0.0
  - 0.0
  - 0.0
  - 0.0
  - 0.0
  - 0.0
---
header:
  stamp:
    sec: 105
    nanosec: 0
  frame_id: base_link
pose:
  pose:
    position:
      x: 0.37527341860067587
      y: 0.185344587932323
      z: 0.06617079575752527
    orientation:
      x: -0.05293908226933008
      y: -9.107155883537698e-18
      z: 0.30023260493334214
      w: 0.9523958402384066
  covariance:
  - 0.0
  - 0.0
  - 0.0
  - 0.0
  - 0.0
  - 0.0
  - 0.0
  - 0.0
  - 0.0
  - 0.0
  - 0.0
  - 0.0
  - 0.0
  - 0.0
  - 0.0
  - 0.0
  - 0.0
  - 0.0
  - 0.0
  - 0.0
  - 0.0
  - 0.0
  - 0.0
  - 0.0
  - 0.0
  - 0.0
  - 0.0
  - 0.0
  - 0.0
  - 0.0
  - 0.0
  - 0.0
  - 0.0
  - 0.0
  - 0.0
  - 0.0
---
header:
  stamp:
    sec: 106
    nanosec: 0
  frame_id: base_link
pose:
  pose:
    position:
      x: 0.3749069238877927
      y: 0.18586154567422897
      z: 0.06610617288366738
    orientation:
      x: -0.05366018993002726
      y: -2.1887953506870063e-17
      z: 0.30432221174418655
      w: 0.9510565574432468
  covariance:
  - 0.0
  - 0.0
  - 0.0
  - 0.0
  - 0.0
  - 0.0
  - 0.0
  - 0.0
  - 0.0
  - 0.0
  - 0.0
  - 0.0
  - 0.0
  - 0.0
  - 0.0
  - 0.0
  - 0.0
  - 0.0
  - 0.0
  - 0.0
  - 0.0
  - 0.0
  - 0.0
  - 0.0
  - 0.0
  - 0.0
  - 0.0
  - 0.0
  - 0.0
  - 0.0
  - 0.0
  - 0.0
  - 0.0
  - 0.0
  - 0.0
  - 0.0
---
header:
  stamp:
    sec: 107
    nanosec: 0
  frame_id: base_link
pose:
  pose:
    position:
      x: 0.3922774922234744
      y: 0.1994642199451775
      z: 0.06916907122008187
    orientation:
      x: -0.05438029793761132
      y: 1.2786222495961742e-17
      z: 0.30840614923767007
      w: 0.9496991262018771
  covariance:
  - 0.0
  - 0.0
  - 0.0
  - 0.0
  - 0.0
  - 0.0
  - 0.0
  - 0.0
  - 0.0
  - 0.0
  - 0.0
  - 0.0
  - 0.0
  - 0.0
  - 0.0
  - 0.0
  - 0.0
  - 0.0
  - 0.0
  - 0.0
  - 0.0
  - 0.0
  - 0.0
  - 0.0
  - 0.0
  - 0.0
  - 0.0
  - 0.0
  - 0.0
  - 0.0
  - 0.0
  - 0.0
  - 0.0
  - 0.0
  - 0.0
  - 0.0
---
header:
  stamp:
    sec: 108
    nanosec: 0
  frame_id: base_link
pose:
  pose:
    position:
      x: 0.39190218027049495
      y: 0.1999746612004012
      z: 0.06910289362967692
    orientation:
      x: -0.05509932670402104
      y: -1.646327232530747e-17
      z: 0.3124839660472422
      w: 0.9483236974578615
  covariance:
  - 0.0
  - 0.0
  - 0.0
  - 0.0
  - 0.0
  - 0.0
  - 0.0
  - 0.0
  - 0.0
  - 0.0
  - 0.0
  - 0.0
  - 0.0
  - 0.0
  - 0.0
  - 0.0
  - 0.0
  - 0.0
  - 0.0
  - 0.0
  - 0.0
  - 0.0
  - 0.0
  - 0.0
  - 0.0
  - 0.0
  - 0.0
  - 0.0
  - 0.0
  - 0.0
  - 0.0
  - 0.0
  - 0.0
  - 0.0
  - 0.0
  - 0.0
---
header:
  stamp:
    sec: 109
    nanosec: 0
  frame_id: base_link
pose:
  pose:
    position:
      x: 0.3915224300573783
      y: 0.20048171437499107
      z: 0.06903593345465397
    orientation:
      x: -0.05581730652269981
      y: 3.297499865319948e-17
      z: 0.31655583397564374
      w: 0.9469302150995794
  covariance:
  - 0.0
  - 0.0
  - 0.0
  - 0.0
  - 0.0
  - 0.0
  - 0.0
  - 0.0
  - 0.0
  - 0.0
  - 0.0
  - 0.0
  - 0.0
  - 0.0
  - 0.0
  - 0.0
  - 0.0
  - 0.0
  - 0.0
  - 0.0
  - 0.0
  - 0.0
  - 0.0
  - 0.0
  - 0.0
  - 0.0
  - 0.0
  - 0.0
  - 0.0
  - 0.0
  - 0.0
  - 0.0
  - 0.0
  - 0.0
  - 0.0
  - 0.0
---
header:
  stamp:
    sec: 110
    nanosec: 0
  frame_id: base_link
pose:
  pose:
    position:
      x: 0.39113833201991355
      y: 0.20098530345619015
      z: 0.06896820664127423
    orientation:
      x: -0.0565342674509605
      y: -1.467743472170462e-17
      z: 0.32062192348645185
      w: 0.9455186189513303
  covariance:
  - 0.0
  - 0.0
  - 0.0
  - 0.0
  - 0.0
  - 0.0
  - 0.0
  - 0.0
  - 0.0
  - 0.0
  - 0.0
  - 0.0
  - 0.0
  - 0.0
  - 0.0
  - 0.0
  - 0.0
  - 0.0
  - 0.0
  - 0.0
  - 0.0
  - 0.0
  - 0.0
  - 0.0
  - 0.0
  - 0.0
  - 0.0
  - 0.0
  - 0.0
  - 0.0
  - 0.0
  - 0.0
  - 0.0
  - 0.0
  - 0.0
  - 0.0
---
header:
  stamp:
    sec: 111
    nanosec: 0
  frame_id: base_link
pose:
  pose:
    position:
      x: 0.39074994543825037
      y: 0.20148568811854428
      z: 0.06889972364222219
    orientation:
      x: -0.05725013015273335
      y: 1.1024744644878576e-17
      z: 0.3246817846422317
      w: 0.9440890642937405
  covariance:
  - 0.0
  - 0.0
  - 0.0
  - 0.0
  - 0.0
  - 0.0
  - 0.0
  - 0.0
  - 0.0
  - 0.0
  - 0.0
  - 0.0
  - 0.0
  - 0.0
  - 0.0
  - 0.0
  - 0.0
  - 0.0
  - 0.0
  - 0.0
  - 0.0
  - 0.0
  - 0.0
  - 0.0
  - 0.0
  - 0.0
  - 0.0
  - 0.0
  - 0.0
  - 0.0
  - 0.0
  - 0.0
  - 0.0
  - 0.0
  - 0.0
  - 0.0
---
header:
  stamp:
    sec: 112
    nanosec: 0
  frame_id: base_link
pose:
  pose:
    position:
      x: 0.3903573014680175
      y: 0.2019825326747351
      z: 0.06883048995107366
    orientation:
      x: -0.05796490289455234
      y: 5.5208371705606135e-18
      z: 0.32873546432485046
      w: 0.9426415355412419
  covariance:
  - 0.0
  - 0.0
  - 0.0
  - 0.0
  - 0.0
  - 0.0
  - 0.0
  - 0.0
  - 0.0
  - 0.0
  - 0.0
  - 0.0
  - 0.0
  - 0.0
  - 0.0
  - 0.0
  - 0.0
  - 0.0
  - 0.0
  - 0.0
  - 0.0
  - 0.0
  - 0.0
  - 0.0
  - 0.0
  - 0.0
  - 0.0
  - 0.0
  - 0.0
  - 0.0
  - 0.0
  - 0.0
  - 0.0
  - 0.0
  - 0.0
  - 0.0
---
header:
  stamp:
    sec: 113
    nanosec: 0
  frame_id: base_link
pose:
  pose:
    position:
      x: 0.3903573014680175
      y: 0.2019825326747351
      z: 0.06883048995107366
    orientation:
      x: -0.05796490289455234
      y: 5.5208371705606135e-18
      z: 0.32873546432485046
      w: 0.9426415355412419
  covariance:
  - 0.0
  - 0.0
  - 0.0
  - 0.0
  - 0.0
  - 0.0
  - 0.0
  - 0.0
  - 0.0
  - 0.0
  - 0.0
  - 0.0
  - 0.0
  - 0.0
  - 0.0
  - 0.0
  - 0.0
  - 0.0
  - 0.0
  - 0.0
  - 0.0
  - 0.0
  - 0.0
  - 0.0
  - 0.0
  - 0.0
  - 0.0
  - 0.0
  - 0.0
  - 0.0
  - 0.0
  - 0.0
  - 0.0
  - 0.0
  - 0.0
  - 0.0
---
header:
  stamp:
    sec: 114
    nanosec: 0
  frame_id: base_link
pose:
  pose:
    position:
      x: 0.3903573014680175
      y: 0.2019825326747351
      z: 0.06883048995107366
    orientation:
      x: -0.05796490289455234
      y: 5.5208371705606135e-18
      z: 0.32873546432485046
      w: 0.9426415355412419
  covariance:
  - 0.0
  - 0.0
  - 0.0
  - 0.0
  - 0.0
  - 0.0
  - 0.0
  - 0.0
  - 0.0
  - 0.0
  - 0.0
  - 0.0
  - 0.0
  - 0.0
  - 0.0
  - 0.0
  - 0.0
  - 0.0
  - 0.0
  - 0.0
  - 0.0
  - 0.0
  - 0.0
  - 0.0
  - 0.0
  - 0.0
  - 0.0
  - 0.0
  - 0.0
  - 0.0
  - 0.0
  - 0.0
  - 0.0
  - 0.0
  - 0.0
  - 0.0
---
header:
  stamp:
    sec: 115
    nanosec: 0
  frame_id: base_link
pose:
  pose:
    position:
      x: 0.3903573014680175
      y: 0.2019825326747351
      z: 0.06883048995107366
    orientation:
      x: -0.05796490289455234
      y: 5.5208371705606135e-18
      z: 0.32873546432485046
      w: 0.9426415355412419
  covariance:
  - 0.0
  - 0.0
  - 0.0
  - 0.0
  - 0.0
  - 0.0
  - 0.0
  - 0.0
  - 0.0
  - 0.0
  - 0.0
  - 0.0
  - 0.0
  - 0.0
  - 0.0
  - 0.0
  - 0.0
  - 0.0
  - 0.0
  - 0.0
  - 0.0
  - 0.0
  - 0.0
  - 0.0
  - 0.0
  - 0.0
  - 0.0
  - 0.0
  - 0.0
  - 0.0
  - 0.0
  - 0.0
  - 0.0
  - 0.0
  - 0.0
  - 0.0
---
header:
  stamp:
    sec: 116
    nanosec: 0
  frame_id: base_link
pose:
  pose:
    position:
      x: 0.3903573014680175
      y: 0.2019825326747351
      z: 0.06883048995107366
    orientation:
      x: -0.05796490289455234
      y: 5.5208371705606135e-18
      z: 0.32873546432485046
      w: 0.9426415355412419
  covariance:
  - 0.0
  - 0.0
  - 0.0
  - 0.0
  - 0.0
  - 0.0
  - 0.0
  - 0.0
  - 0.0
  - 0.0
  - 0.0
  - 0.0
  - 0.0
  - 0.0
  - 0.0
  - 0.0
  - 0.0
  - 0.0
  - 0.0
  - 0.0
  - 0.0
  - 0.0
  - 0.0
  - 0.0
  - 0.0
  - 0.0
  - 0.0
  - 0.0
  - 0.0
  - 0.0
  - 0.0
  - 0.0
  - 0.0
  - 0.0
  - 0.0
  - 0.0
---
header:
  stamp:
    sec: 117
    nanosec: 0
  frame_id: base_link
pose:
  pose:
    position:
      x: 0.3903573014680175
      y: 0.2019825326747351
      z: 0.06883048995107366
    orientation:
      x: -0.05796490289455234
      y: 5.5208371705606135e-18
      z: 0.32873546432485046
      w: 0.9426415355412419
  covariance:
  - 0.0
  - 0.0
  - 0.0
  - 0.0
  - 0.0
  - 0.0
  - 0.0
  - 0.0
  - 0.0
  - 0.0
  - 0.0
  - 0.0
  - 0.0
  - 0.0
  - 0.0
  - 0.0
  - 0.0
  - 0.0
  - 0.0
  - 0.0
  - 0.0
  - 0.0
  - 0.0
  - 0.0
  - 0.0
  - 0.0
  - 0.0
  - 0.0
  - 0.0
  - 0.0
  - 0.0
  - 0.0
  - 0.0
  - 0.0
  - 0.0
  - 0.0
---
header:
  stamp:
    sec: 118
    nanosec: 0
  frame_id: base_link
pose:
  pose:
    position:
      x: 0.3903573014680175
      y: 0.2019825326747351
      z: 0.06883048995107366
    orientation:
      x: -0.05796490289455234
      y: 5.5208371705606135e-18
      z: 0.32873546432485046
      w: 0.9426415355412419
  covariance:
  - 0.0
  - 0.0
  - 0.0
  - 0.0
  - 0.0
  - 0.0
  - 0.0
  - 0.0
  - 0.0
  - 0.0
  - 0.0
  - 0.0
  - 0.0
  - 0.0
  - 0.0
  - 0.0
  - 0.0
  - 0.0
  - 0.0
  - 0.0
  - 0.0
  - 0.0
  - 0.0
  - 0.0
  - 0.0
  - 0.0
  - 0.0
  - 0.0
  - 0.0
  - 0.0
  - 0.0
  - 0.0
  - 0.0
  - 0.0
  - 0.0
  - 0.0
---
header:
  stamp:
    sec: 119
    nanosec: 0
  frame_id: base_link
pose:
  pose:
    position:
      x: 0.3903573014680175
      y: 0.2019825326747351
      z: 0.06883048995107366
    orientation:
      x: -0.05796490289455234
      y: 5.5208371705606135e-18
      z: 0.32873546432485046
      w: 0.9426415355412419
  covariance:
  - 0.0
  - 0.0
  - 0.0
  - 0.0
  - 0.0
  - 0.0
  - 0.0
  - 0.0
  - 0.0
  - 0.0
  - 0.0
  - 0.0
  - 0.0
  - 0.0
  - 0.0
  - 0.0
  - 0.0
  - 0.0
  - 0.0
  - 0.0
  - 0.0
  - 0.0
  - 0.0
  - 0.0
  - 0.0
  - 0.0
  - 0.0
  - 0.0
  - 0.0
  - 0.0
  - 0.0
  - 0.0
  - 0.0
  - 0.0
  - 0.0
  - 0.0
---
header:
  stamp:
    sec: 120
    nanosec: 0
  frame_id: base_link
pose:
  pose:
    position:
      x: 0.3903573014680175
      y: 0.2019825326747351
      z: 0.06883048995107366
    orientation:
      x: -0.05796490289455234
      y: 5.5208371705606135e-18
      z: 0.32873546432485046
      w: 0.9426415355412419
  covariance:
  - 0.0
  - 0.0
  - 0.0
  - 0.0
  - 0.0
  - 0.0
  - 0.0
  - 0.0
  - 0.0
  - 0.0
  - 0.0
  - 0.0
  - 0.0
  - 0.0
  - 0.0
  - 0.0
  - 0.0
  - 0.0
  - 0.0
  - 0.0
  - 0.0
  - 0.0
  - 0.0
  - 0.0
  - 0.0
  - 0.0
  - 0.0
  - 0.0
  - 0.0
  - 0.0
  - 0.0
  - 0.0
  - 0.0
  - 0.0
  - 0.0
  - 0.0
---
header:
  stamp:
    sec: 121
    nanosec: 0
  frame_id: base_link
pose:
  pose:
    position:
      x: 0.4128141115067798
      y: 0.22044813919263984
      z: 0.07279022948173752
    orientation:
      x: -0.05796490289455234
      y: 5.5208371705606135e-18
      z: 0.32873546432485046
      w: 0.9426415355412419
  covariance:
  - 0.0
  - 0.0
  - 0.0
  - 0.0
  - 0.0
  - 0.0
  - 0.0
  - 0.0
  - 0.0
  - 0.0
  - 0.0
  - 0.0
  - 0.0
  - 0.0
  - 0.0
  - 0.0
  - 0.0
  - 0.0
  - 0.0
  - 0.0
  - 0.0
  - 0.0
  - 0.0
  - 0.0
  - 0.0
  - 0.0
  - 0.0
  - 0.0
  - 0.0
  - 0.0
  - 0.0
  - 0.0
  - 0.0
  - 0.0
  - 0.0
  - 0.0
---
header:
  stamp:
    sec: 122
    nanosec: 0
  frame_id: base_link
pose:
  pose:
    position:
      x: 0.4335201593403242
      y: 0.23829399540007357
      z: 0.07644126255316586
    orientation:
      x: -0.058678550305697005
      y: 7.372577634736529e-18
      z: 0.3327827619368838
      w: 0.9411761052490025
  covariance:
  - 0.0
  - 0.0
  - 0.0
  - 0.0
  - 0.0
  - 0.0
  - 0.0
  - 0.0
  - 0.0
  - 0.0
  - 0.0
  - 0.0
  - 0.0
  - 0.0
  - 0.0
  - 0.0
  - 0.0
  - 0.0
  - 0.0
  - 0.0
  - 0.0
  - 0.0
  - 0.0
  - 0.0
  - 0.0
  - 0.0
  - 0.0
  - 0.0
  - 0.0
  - 0.0
  - 0.0
  - 0.0
  - 0.0
  - 0.0
  - 0.0
  - 0.0
---
header:
  stamp:
    sec: 123
    nanosec: 0
  frame_id: base_link
pose:
  pose:
    position:
      x: 0.45574025826451114
      y: 0.25771900431688355
      z: 0.08035926354856526
    orientation:
      x: -0.05939110235819061
      y: 5.5381619567598756e-18
      z: 0.3368238474582075
      w: 0.9396927118713485
  covariance:
  - 0.0
  - 0.0
  - 0.0
  - 0.0
  - 0.0
  - 0.0
  - 0.0
  - 0.0
  - 0.0
  - 0.0
  - 0.0
  - 0.0
  - 0.0
  - 0.0
  - 0.0
  - 0.0
  - 0.0
  - 0.0
  - 0.0
  - 0.0
  - 0.0
  - 0.0
  - 0.0
  - 0.0
  - 0.0
  - 0.0
  - 0.0
  - 0.0
  - 0.0
  - 0.0
  - 0.0
  - 0.0
  - 0.0
  - 0.0
  - 0.0
  - 0.0
---
header:
  stamp:
    sec: 125
    nanosec: 0
  frame_id: base_link
pose:
  pose:
    position:
      x: 0.49691540649780475
      y: 0.2947751444406932
      z: 0.08761954948672335
    orientation:
      x: -0.060812822414143305
      y: -1.852006934255494e-18
      z: 0.344886826595493
      w: 0.9366722358813228
  covariance:
  - 0.0
  - 0.0
  - 0.0
  - 0.0
  - 0.0
  - 0.0
  - 0.0
  - 0.0
  - 0.0
  - 0.0
  - 0.0
  - 0.0
  - 0.0
  - 0.0
  - 0.0
  - 0.0
  - 0.0
  - 0.0
  - 0.0
  - 0.0
  - 0.0
  - 0.0
  - 0.0
  - 0.0
  - 0.0
  - 0.0
  - 0.0
  - 0.0
  - 0.0
  - 0.0
  - 0.0
  - 0.0
  - 0.0
  - 0.0
  - 0.0
  - 0.0
---
header:
  stamp:
    sec: 132
    nanosec: 0
  frame_id: base_link
pose:
  pose:
    position:
      x: 0.5955088081641429
      y: 0.3899942094543931
      z: 0.1050042176282342
    orientation:
      x: -0.06575158909482015
      y: 1.874281432249902e-18
      z: 0.37289597828712795
      w: 0.9255405544376712
  covariance:
  - 0.0
  - 0.0
  - 0.0
  - 0.0
  - 0.0
  - 0.0
  - 0.0
  - 0.0
  - 0.0
  - 0.0
  - 0.0
  - 0.0
  - 0.0
  - 0.0
  - 0.0
  - 0.0
  - 0.0
  - 0.0
  - 0.0
  - 0.0
  - 0.0
  - 0.0
  - 0.0
  - 0.0
  - 0.0
  - 0.0
  - 0.0
  - 0.0
  - 0.0
  - 0.0
  - 0.0
  - 0.0
  - 0.0
  - 0.0
  - 0.0
  - 0.0
---
header:
  stamp:
    sec: 133
    nanosec: 0
  frame_id: base_link
pose:
  pose:
    position:
      x: 0.5950670962737279
      y: 0.3904465647681925
      z: 0.1049263319431959
    orientation:
      x: -0.06645222706765112
      y: 1.5021208451983532e-17
      z: 0.3768694956712803
      w: 0.9238795834686597
  covariance:
  - 0.0
  - 0.0
  - 0.0
  - 0.0
  - 0.0
  - 0.0
  - 0.0
  - 0.0
  - 0.0
  - 0.0
  - 0.0
  - 0.0
  - 0.0
  - 0.0
  - 0.0
  - 0.0
  - 0.0
  - 0.0
  - 0.0
  - 0.0
  - 0.0
  - 0.0
  - 0.0
  - 0.0
  - 0.0
  - 0.0
  - 0.0
  - 0.0
  - 0.0
  - 0.0
  - 0.0
  - 0.0
  - 0.0
  - 0.0
  - 0.0
  - 0.0
---
header:
  stamp:
    sec: 134
    nanosec: 0
  frame_id: base_link
pose:
  pose:
    position:
      x: 0.5946217288895648
      y: 0.3908951835737451
      z: 0.10484780169630437
    orientation:
      x: -0.06715159988586755
      y: -2.445389304635921e-17
      z: 0.38083583800348086
      w: 0.9222010231641228
  covariance:
  - 0.0
  - 0.0
  - 0.0
  - 0.0
  - 0.0
  - 0.0
  - 0.0
  - 0.0
  - 0.0
  - 0.0
  - 0.0
  - 0.0
  - 0.0
  - 0.0
  - 0.0
  - 0.0
  - 0.0
  - 0.0
  - 0.0
  - 0.0
  - 0.0
  - 0.0
  - 0.0
  - 0.0
  - 0.0
  - 0.0
  - 0.0
  - 0.0
  - 0.0
  - 0.0
  - 0.0
  - 0.0
  - 0.0
  - 0.0
  - 0.0
  - 0.0
---
header:
  stamp:
    sec: 135
    nanosec: 0
  frame_id: base_link
pose:
  pose:
    position:
      x: 0.5941721664280655
      y: 0.39133959089846604
      z: 0.10476853174446221
    orientation:
      x: -0.06784969423441911
      y: -2.261441692245459e-17
      z: 0.3847949297702889
      w: 0.9205049054814289
  covariance:
  - 0.0
  - 0.0
  - 0.0
  - 0.0
  - 0.0
  - 0.0
  - 0.0
  - 0.0
  - 0.0
  - 0.0
  - 0.0
  - 0.0
  - 0.0
  - 0.0
  - 0.0
  - 0.0
  - 0.0
  - 0.0
  - 0.0
  - 0.0
  - 0.0
  - 0.0
  - 0.0
  - 0.0
  - 0.0
  - 0.0
  - 0.0
  - 0.0
  - 0.0
  - 0.0
  - 0.0
  - 0.0
  - 0.0
  - 0.0
  - 0.0
  - 0.0
---
header:
  stamp:
    sec: 136
    nanosec: 0
  frame_id: base_link
pose:
  pose:
    position:
      x: 0.5937190389085951
      y: 0.3917801857021681
      z: 0.10468863317702626
    orientation:
      x: -0.06854649682259566
      y: 5.664148799769861e-18
      z: 0.3887466955963041
      w: 0.918791262712214
  covariance:
  - 0.0
  - 0.0
  - 0.0
  - 0.0
  - 0.0
  - 0.0
  - 0.0
  - 0.0
  - 0.0
  - 0.0
  - 0.0
  - 0.0
  - 0.0
  - 0.0
  - 0.0
  - 0.0
  - 0.0
  - 0.0
  - 0.0
  - 0.0
  - 0.0
  - 0.0
  - 0.0
  - 0.0
  - 0.0
  - 0.0
  - 0.0
  - 0.0
  - 0.0
  - 0.0
  - 0.0
  - 0.0
  - 0.0
  - 0.0
  - 0.0
  - 0.0
---
header:
  stamp:
    sec: 137
    nanosec: 0
  frame_id: base_link
pose:
  pose:
    position:
      x: 0.593262046899278
      y: 0.39221660066127306
      z: 0.10460805319610422
    orientation:
      x: -0.06924197317942654
      y: 0.0
      z: 0.39269093998683924
      w: 0.9170601805783917
  covariance:
  - 0.0
  - 0.0
  - 0.0
  - 0.0
  - 0.0
  - 0.0
  - 0.0
  - 0.0
  - 0.0
  - 0.0
  - 0.0
  - 0.0
  - 0.0
  - 0.0
  - 0.0
  - 0.0
  - 0.0
  - 0.0
  - 0.0
  - 0.0
  - 0.0
  - 0.0
  - 0.0
  - 0.0
  - 0.0
  - 0.0
  - 0.0
  - 0.0
  - 0.0
  - 0.0
  - 0.0
  - 0.0
  - 0.0
  - 0.0
  - 0.0
  - 0.0
---
header:
  stamp:
    sec: 138
    nanosec: 0
  frame_id: base_link
pose:
  pose:
    position:
      x: 0.5928013401160448
      y: 0.39264901943756314
      z: 0.10452681820064136
    orientation:
      x: -0.06993615251378048
      y: 1.3266590866502546e-17
      z: 0.3966278285937035
      w: 0.9153115863773457
  covariance:
  - 0.0
  - 0.0
  - 0.0
  - 0.0
  - 0.0
  - 0.0
  - 0.0
  - 0.0
  - 0.0
  - 0.0
  - 0.0
  - 0.0
  - 0.0
  - 0.0
  - 0.0
  - 0.0
  - 0.0
  - 0.0
  - 0.0
  - 0.0
  - 0.0
  - 0.0
  - 0.0
  - 0.0
  - 0.0
  - 0.0
  - 0.0
  - 0.0
  - 0.0
  - 0.0
  - 0.0
  - 0.0
  - 0.0
  - 0.0
  - 0.0
  - 0.0
---
header:
  stamp:
    sec: 139
    nanosec: 0
  frame_id: base_link
pose:
  pose:
    position:
      x: 0.5923370089946864
      y: 0.39307736601828003
      z: 0.10444494413689931
    orientation:
      x: -0.07062900036460132
      y: -5.696673074477705e-18
      z: 0.40055716597843793
      w: 0.9135455659630882
  covariance:
  - 0.0
  - 0.0
  - 0.0
  - 0.0
  - 0.0
  - 0.0
  - 0.0
  - 0.0
  - 0.0
  - 0.0
  - 0.0
  - 0.0
  - 0.0
  - 0.0
  - 0.0
  - 0.0
  - 0.0
  - 0.0
  - 0.0
  - 0.0
  - 0.0
  - 0.0
  - 0.0
  - 0.0
  - 0.0
  - 0.0
  - 0.0
  - 0.0
  - 0.0
  - 0.0
  - 0.0
  - 0.0
  - 0.0
  - 0.0
  - 0.0
  - 0.0
---
header:
  stamp:
    sec: 140
    nanosec: 0
  frame_id: base_link
pose:
  pose:
    position:
      x: 0.6100417478350884
      y: 0.41399585468873523
      z: 0.10756676571999169
    orientation:
      x: -0.07132050354106478
      y: -2.0928657955186846e-17
      z: 0.4044788773321231
      w: 0.9117621529581025
  covariance:
  - 0.0
  - 0.0
  - 0.0
  - 0.0
  - 0.0
  - 0.0
  - 0.0
  - 0.0
  - 0.0
  - 0.0
  - 0.0
  - 0.0
  - 0.0
  - 0.0
  - 0.0
  - 0.0
  - 0.0
  - 0.0
  - 0.0
  - 0.0
  - 0.0
  - 0.0
  - 0.0
  - 0.0
  - 0.0
  - 0.0
  - 0.0
  - 0.0
  - 0.0
  - 0.0
  - 0.0
  - 0.0
  - 0.0
  - 0.0
  - 0.0
  - 0.0
---
header:
  stamp:
    sec: 141
    nanosec: 0
  frame_id: base_link
pose:
  pose:
    position:
      x: 0.6248864686851836
      y: 0.4319951365259409
      z: 0.11018428921822387
    orientation:
      x: -0.07201066991865789
      y: 9.531852762461584e-18
      z: 0.4083930073188879
      w: 0.9099613260962804
  covariance:
  - 0.0
  - 0.0
  - 0.0
  - 0.0
  - 0.0
  - 0.0
  - 0.0
  - 0.0
  - 0.0
  - 0.0
  - 0.0
  - 0.0
  - 0.0
  - 0.0
  - 0.0
  - 0.0
  - 0.0
  - 0.0
  - 0.0
  - 0.0
  - 0.0
  - 0.0
  - 0.0
  - 0.0
  - 0.0
  - 0.0
  - 0.0
  - 0.0
  - 0.0
  - 0.0
  - 0.0
  - 0.0
  - 0.0
  - 0.0
  - 0.0
  - 0.0
---
header:
  stamp:
    sec: 142
    nanosec: 0
  frame_id: base_link
pose:
  pose:
    position:
      x: 0.6435142484315475
      y: 0.454725527835218
      z: 0.11346886773595921
    orientation:
      x: -0.07269944423454748
      y: 1.52814967462124e-17
      z: 0.4122992425274742
      w: 0.9081432295729893
  covariance:
  - 0.0
  - 0.0
  - 0.0
  - 0.0
  - 0.0
  - 0.0
  - 0.0
  - 0.0
  - 0.0
  - 0.0
  - 0.0
  - 0.0
  - 0.0
  - 0.0
  - 0.0
  - 0.0
  - 0.0
  - 0.0
  - 0.0
  - 0.0
  - 0.0
  - 0.0
  - 0.0
  - 0.0
  - 0.0
  - 0.0
  - 0.0
  - 0.0
  - 0.0
  - 0.0
  - 0.0
  - 0.0
  - 0.0
  - 0.0
  - 0.0
  - 0.0
---
header:
  stamp:
    sec: 143
    nanosec: 0
  frame_id: base_link
pose:
  pose:
    position:
      x: 0.6628662920280459
      y: 0.47871437998908295
      z: 0.11688115344777295
    orientation:
      x: -0.07338681350158022
      y: 2.67967747768184e-17
      z: 0.41619750930403904
      w: 0.9063078995866685
  covariance:
  - 0.0
  - 0.0
  - 0.0
  - 0.0
  - 0.0
  - 0.0
  - 0.0
  - 0.0
  - 0.0
  - 0.0
  - 0.0
  - 0.0
  - 0.0
  - 0.0
  - 0.0
  - 0.0
  - 0.0
  - 0.0
  - 0.0
  - 0.0
  - 0.0
  - 0.0
  - 0.0
  - 0.0
  - 0.0
  - 0.0
  - 0.0
  - 0.0
  - 0.0
  - 0.0
  - 0.0
  - 0.0
  - 0.0
  - 0.0
  - 0.0
  - 0.0
---
header:
  stamp:
    sec: 144
    nanosec: 0
  frame_id: base_link
pose:
  pose:
    position:
      x: 0.6623841416789817
      y: 0.4791218018662451
      z: 0.11679613737498151
    orientation:
      x: -0.07407282750153497
      y: -9.589880580325918e-18
      z: 0.42008808997522085
      w: 0.9044552022554232
  covariance:
  - 0.0
  - 0.0
  - 0.0
  - 0.0
  - 0.0
  - 0.0
  - 0.0
  - 0.0
  - 0.0
  - 0.0
  - 0.0
  - 0.0
  - 0.0
  - 0.0
  - 0.0
  - 0.0
  - 0.0
  - 0.0
  - 0.0
  - 0.0
  - 0.0
  - 0.0
  - 0.0
  - 0.0
  - 0.0
  - 0.0
  - 0.0
  - 0.0
  - 0.0
  - 0.0
  - 0.0
  - 0.0
  - 0.0
  - 0.0
  - 0.0
  - 0.0
---
header:
  stamp:
    sec: 145
    nanosec: 0
  frame_id: base_link
pose:
  pose:
    position:
      x: 0.6618983077116298
      y: 0.4795248918732735
      z: 0.11671047178122462
    orientation:
      x: -0.07475741030539516
      y: -1.537559626444511e-17
      z: 0.42397055392595295
      w: 0.9025853416758727
  covariance:
  - 0.0
  - 0.0
  - 0.0
  - 0.0
  - 0.0
  - 0.0
  - 0.0
  - 0.0
  - 0.0
  - 0.0
  - 0.0
  - 0.0
  - 0.0
  - 0.0
  - 0.0
  - 0.0
  - 0.0
  - 0.0
  - 0.0
  - 0.0
  - 0.0
  - 0.0
  - 0.0
  - 0.0
  - 0.0
  - 0.0
  - 0.0
  - 0.0
  - 0.0
  - 0.0
  - 0.0
  - 0.0
  - 0.0
  - 0.0
  - 0.0
  - 0.0
---
header:
  stamp:
    sec: 146
    nanosec: 0
  frame_id: base_link
pose:
  pose:
    position:
      x: 0.6614089709975355
      y: 0.4799234979846063
      z: 0.1166241885590189
    orientation:
      x: -0.07544054900939852
      y: 1.1555856406113728e-17
      z: 0.42784482797532647
      w: 0.9006983550223259
  covariance:
  - 0.0
  - 0.0
  - 0.0
  - 0.0
  - 0.0
  - 0.0
  - 0.0
  - 0.0
  - 0.0
  - 0.0
  - 0.0
  - 0.0
  - 0.0
  - 0.0
  - 0.0
  - 0.0
  - 0.0
  - 0.0
  - 0.0
  - 0.0
  - 0.0
  - 0.0
  - 0.0
  - 0.0
  - 0.0
  - 0.0
  - 0.0
  - 0.0
  - 0.0
  - 0.0
  - 0.0
  - 0.0
  - 0.0
  - 0.0
  - 0.0
  - 0.0
---
header:
  stamp:
    sec: 147
    nanosec: 0
  frame_id: base_link
pose:
  pose:
    position:
      x: 0.6609161908168719
      y: 0.4803178798748209
      z: 0.1165372981610533
    orientation:
      x: -0.07612227230425246
      y: 3.8601129097253586e-18
      z: 0.43171107483651
      w: 0.8987941630444328
  covariance:
  - 0.0
  - 0.0
  - 0.0
  - 0.0
  - 0.0
  - 0.0
  - 0.0
  - 0.0
  - 0.0
  - 0.0
  - 0.0
  - 0.0
  - 0.0
  - 0.0
  - 0.0
  - 0.0
  - 0.0
  - 0.0
  - 0.0
  - 0.0
  - 0.0
  - 0.0
  - 0.0
  - 0.0
  - 0.0
  - 0.0
  - 0.0
  - 0.0
  - 0.0
  - 0.0
  - 0.0
  - 0.0
  - 0.0
  - 0.0
  - 0.0
  - 0.0
---
header:
  stamp:
    sec: 148
    nanosec: 0
  frame_id: base_link
pose:
  pose:
    position:
      x: 0.6604201480411875
      y: 0.4807078855183642
      z: 0.1164498324798462
    orientation:
      x: -0.07680254634076966
      y: 1.9341910706157632e-17
      z: 0.43556910254112713
      w: 0.896872859321259
  covariance:
  - 0.0
  - 0.0
  - 0.0
  - 0.0
  - 0.0
  - 0.0
  - 0.0
  - 0.0
  - 0.0
  - 0.0
  - 0.0
  - 0.0
  - 0.0
  - 0.0
  - 0.0
  - 0.0
  - 0.0
  - 0.0
  - 0.0
  - 0.0
  - 0.0
  - 0.0
  - 0.0
  - 0.0
  - 0.0
  - 0.0
  - 0.0
  - 0.0
  - 0.0
  - 0.0
  - 0.0
  - 0.0
  - 0.0
  - 0.0
  - 0.0
  - 0.0
---
header:
  stamp:
    sec: 149
    nanosec: 0
  frame_id: base_link
pose:
  pose:
    position:
      x: 0.6599208426704828
      y: 0.48109351491523666
      z: 0.1163617915153976
    orientation:
      x: -0.07748135816751303
      y: 0.0
      z: 0.43941883763789136
      w: 0.8949344804316585
  covariance:
  - 0.0
  - 0.0
  - 0.0
  - 0.0
  - 0.0
  - 0.0
  - 0.0
  - 0.0
  - 0.0
  - 0.0
  - 0.0
  - 0.0
  - 0.0
  - 0.0
  - 0.0
  - 0.0
  - 0.0
  - 0.0
  - 0.0
  - 0.0
  - 0.0
  - 0.0
  - 0.0
  - 0.0
  - 0.0
  - 0.0
  - 0.0
  - 0.0
  - 0.0
  - 0.0
  - 0.0
  - 0.0
  - 0.0
  - 0.0
  - 0.0
  - 0.0
---
header:
  stamp:
    sec: 150
    nanosec: 0
  frame_id: base_link
pose:
  pose:
    position:
      x: 0.6594181249888194
      y: 0.4814745844036481
      z: 0.11627314886876139
    orientation:
      x: -0.07815869486088384
      y: -3.885250051901175e-18
      z: 0.4432602068333952
      w: 0.8929790632795702
  covariance:
  - 0.0
  - 0.0
  - 0.0
  - 0.0
  - 0.0
  - 0.0
  - 0.0
  - 0.0
  - 0.0
  - 0.0
  - 0.0
  - 0.0
  - 0.0
  - 0.0
  - 0.0
  - 0.0
  - 0.0
  - 0.0
  - 0.0
  - 0.0
  - 0.0
  - 0.0
  - 0.0
  - 0.0
  - 0.0
  - 0.0
  - 0.0
  - 0.0
  - 0.0
  - 0.0
  - 0.0
  - 0.0
  - 0.0
  - 0.0
  - 0.0
  - 0.0
---
header:
  stamp:
    sec: 151
    nanosec: 0
  frame_id: base_link
pose:
  pose:
    position:
      x: 0.6589122944280739
      y: 0.48185146130717804
      z: 0.11618395733782938
    orientation:
      x: -0.07883454352536785
      y: 7.787701631765593e-18
      z: 0.44709313699350717
      w: 0.8910066450933192
  covariance:
  - 0.0
  - 0.0
  - 0.0
  - 0.0
  - 0.0
  - 0.0
  - 0.0
  - 0.0
  - 0.0
  - 0.0
  - 0.0
  - 0.0
  - 0.0
  - 0.0
  - 0.0
  - 0.0
  - 0.0
  - 0.0
  - 0.0
  - 0.0
  - 0.0
  - 0.0
  - 0.0
  - 0.0
  - 0.0
  - 0.0
  - 0.0
  - 0.0
  - 0.0
  - 0.0
  - 0.0
  - 0.0
  - 0.0
  - 0.0
  - 0.0
  - 0.0
---
header:
  stamp:
    sec: 152
    nanosec: 0
  frame_id: base_link
pose:
  pose:
    position:
      x: 0.6584029922762089
      y: 0.48222351862768553
      z: 0.11609415367202347
    orientation:
      x: -0.07950889129378065
      y: 7.80512841468951e-18
      z: 0.4509175551447612
      w: 0.889017263424904
  covariance:
  - 0.0
  - 0.0
  - 0.0
  - 0.0
  - 0.0
  - 0.0
  - 0.0
  - 0.0
  - 0.0
  - 0.0
  - 0.0
  - 0.0
  - 0.0
  - 0.0
  - 0.0
  - 0.0
  - 0.0
  - 0.0
  - 0.0
  - 0.0
  - 0.0
  - 0.0
  - 0.0
  - 0.0
  - 0.0
  - 0.0
  - 0.0
  - 0.0
  - 0.0
  - 0.0
  - 0.0
  - 0.0
  - 0.0
  - 0.0
  - 0.0
  - 0.0
---
header:
  stamp:
    sec: 153
    nanosec: 0
  frame_id: base_link
pose:
  pose:
    position:
      x: 0.657890758116817
      y: 0.48259123133776516
      z: 0.11600383301444106
    orientation:
      x: -0.08018172532751285
      y: -3.911391316985838e-18
      z: 0.4547333884757492
      w: 0.8870109561492838
  covariance:
  - 0.0
  - 0.0
  - 0.0
  - 0.0
  - 0.0
  - 0.0
  - 0.0
  - 0.0
  - 0.0
  - 0.0
  - 0.0
  - 0.0
  - 0.0
  - 0.0
  - 0.0
  - 0.0
  - 0.0
  - 0.0
  - 0.0
  - 0.0
  - 0.0
  - 0.0
  - 0.0
  - 0.0
  - 0.0
  - 0.0
  - 0.0
  - 0.0
  - 0.0
  - 0.0
  - 0.0
  - 0.0
  - 0.0
  - 0.0
  - 0.0
  - 0.0
---
header:
  stamp:
    sec: 154
    nanosec: 0
  frame_id: base_link
pose:
  pose:
    position:
      x: 0.6573752020822505
      y: 0.48295430812661966
      z: 0.11591292662093222
    orientation:
      x: -0.0808530328167743
      y: 7.840666510948331e-18
      z: 0.45854056433850493
      w: 0.8849877614636573
  covariance:
  - 0.0
  - 0.0
  - 0.0
  - 0.0
  - 0.0
  - 0.0
  - 0.0
  - 0.0
  - 0.0
  - 0.0
  - 0.0
  - 0.0
  - 0.0
  - 0.0
  - 0.0
  - 0.0
  - 0.0
  - 0.0
  - 0.0
  - 0.0
  - 0.0
  - 0.0
  - 0.0
  - 0.0
  - 0.0
  - 0.0
  - 0.0
  - 0.0
  - 0.0
  - 0.0
  - 0.0
  - 0.0
  - 0.0
  - 0.0
  - 0.0
  - 0.0
---
header:
  stamp:
    sec: 155
    nanosec: 0
  frame_id: base_link
pose:
  pose:
    position:
      x: 0.6568568044759298
      y: 0.4833129642922658
      z: 0.11582151918190542
    orientation:
      x: -0.08152282139692145
      y: 0.0
      z: 0.46233912603530775
      w: 0.882947655372839
  covariance:
  - 0.0
  - 0.0
  - 0.0
  - 0.0
  - 0.0
  - 0.0
  - 0.0
  - 0.0
  - 0.0
  - 0.0
  - 0.0
  - 0.0
  - 0.0
  - 0.0
  - 0.0
  - 0.0
  - 0.0
  - 0.0
  - 0.0
  - 0.0
  - 0.0
  - 0.0
  - 0.0
  - 0.0
  - 0.0
  - 0.0
  - 0.0
  - 0.0
  - 0.0
  - 0.0
  - 0.0
  - 0.0
  - 0.0
  - 0.0
  - 0.0
  - 0.0
---
header:
  stamp:
    sec: 156
    nanosec: 0
  frame_id: base_link
pose:
  pose:
    position:
      x: 0.6563350257142728
      y: 0.4836667248621249
      z: 0.11572951555426503
    orientation:
      x: -0.08219099669975868
      y: 1.5754263527947127e-17
      z: 0.46612853837725865
      w: 0.8808909272842926
  covariance:
  - 0.0
  - 0.0
  - 0.0
  - 0.0
  - 0.0
  - 0.0
  - 0.0
  - 0.0
  - 0.0
  - 0.0
  - 0.0
  - 0.0
  - 0.0
  - 0.0
  - 0.0
  - 0.0
  - 0.0
  - 0.0
  - 0.0
  - 0.0
  - 0.0
  - 0.0
  - 0.0
  - 0.0
  - 0.0
  - 0.0
  - 0.0
  - 0.0
  - 0.0
  - 0.0
  - 0.0
  - 0.0
  - 0.0
  - 0.0
  - 0.0
  - 0.0
---
header:
  stamp:
    sec: 157
    nanosec: 0
  frame_id: base_link
pose:
  pose:
    position:
      x: 0.6558104053808615
      y: 0.4840160648087761
      z: 0.11563701088110756
    orientation:
      x: -0.08285766835724011
      y: 3.947859458232645e-18
      z: 0.4699094231183762
      w: 0.8788172397369982
  covariance:
  - 0.0
  - 0.0
  - 0.0
  - 0.0
  - 0.0
  - 0.0
  - 0.0
  - 0.0
  - 0.0
  - 0.0
  - 0.0
  - 0.0
  - 0.0
  - 0.0
  - 0.0
  - 0.0
  - 0.0
  - 0.0
  - 0.0
  - 0.0
  - 0.0
  - 0.0
  - 0.0
  - 0.0
  - 0.0
  - 0.0
  - 0.0
  - 0.0
  - 0.0
  - 0.0
  - 0.0
  - 0.0
  - 0.0
  - 0.0
  - 0.0
  - 0.0
---
header:
  stamp:
    sec: 158
    nanosec: 0
  frame_id: base_link
pose:
  pose:
    position:
      x: 0.6552827937597687
      y: 0.4843608004704456
      z: 0.11554397876348821
    orientation:
      x: -0.08352272188338504
      y: 3.95727194249208e-18
      z: 0.473681130976075
      w: 0.8767269478500231
  covariance:
  - 0.0
  - 0.0
  - 0.0
  - 0.0
  - 0.0
  - 0.0
  - 0.0
  - 0.0
  - 0.0
  - 0.0
  - 0.0
  - 0.0
  - 0.0
  - 0.0
  - 0.0
  - 0.0
  - 0.0
  - 0.0
  - 0.0
  - 0.0
  - 0.0
  - 0.0
  - 0.0
  - 0.0
  - 0.0
  - 0.0
  - 0.0
  - 0.0
  - 0.0
  - 0.0
  - 0.0
  - 0.0
  - 0.0
  - 0.0
  - 0.0
  - 0.0
---
header:
  stamp:
    sec: 159
    nanosec: 0
  frame_id: base_link
pose:
  pose:
    position:
      x: 0.6547522220066067
      y: 0.484700596159791
      z: 0.11545042469497968
    orientation:
      x: -0.08418622580140037
      y: 7.93361140040294e-18
      z: 0.47744405056496686
      w: 0.874619836251976
  covariance:
  - 0.0
  - 0.0
  - 0.0
  - 0.0
  - 0.0
  - 0.0
  - 0.0
  - 0.0
  - 0.0
  - 0.0
  - 0.0
  - 0.0
  - 0.0
  - 0.0
  - 0.0
  - 0.0
  - 0.0
  - 0.0
  - 0.0
  - 0.0
  - 0.0
  - 0.0
  - 0.0
  - 0.0
  - 0.0
  - 0.0
  - 0.0
  - 0.0
  - 0.0
  - 0.0
  - 0.0
  - 0.0
  - 0.0
  - 0.0
  - 0.0
  - 0.0
---
header:
  stamp:
    sec: 160
    nanosec: 0
  frame_id: base_link
pose:
  pose:
    position:
      x: 0.6542186589657568
      y: 0.48503578756414667
      z: 0.11535634318200838
    orientation:
      x: -0.0848481066627854
      y: 7.95292220567491e-18
      z: 0.4811977653376969
      w: 0.8724961372004735
  covariance:
  - 0.0
  - 0.0
  - 0.0
  - 0.0
  - 0.0
  - 0.0
  - 0.0
  - 0.0
  - 0.0
  - 0.0
  - 0.0
  - 0.0
  - 0.0
  - 0.0
  - 0.0
  - 0.0
  - 0.0
  - 0.0
  - 0.0
  - 0.0
  - 0.0
  - 0.0
  - 0.0
  - 0.0
  - 0.0
  - 0.0
  - 0.0
  - 0.0
  - 0.0
  - 0.0
  - 0.0
  - 0.0
  - 0.0
  - 0.0
  - 0.0
  - 0.0
---
header:
  stamp:
    sec: 161
    nanosec: 0
  frame_id: base_link
pose:
  pose:
    position:
      x: 0.6536824352247086
      y: 0.4853664063197489
      z: 0.1152617925160393
    orientation:
      x: -0.08550835201359837
      y: -2.790367580521762e-17
      z: 0.48494220466441607
      w: 0.8703558926503193
  covariance:
  - 0.0
  - 0.0
  - 0.0
  - 0.0
  - 0.0
  - 0.0
  - 0.0
  - 0.0
  - 0.0
  - 0.0
  - 0.0
  - 0.0
  - 0.0
  - 0.0
  - 0.0
  - 0.0
  - 0.0
  - 0.0
  - 0.0
  - 0.0
  - 0.0
  - 0.0
  - 0.0
  - 0.0
  - 0.0
  - 0.0
  - 0.0
  - 0.0
  - 0.0
  - 0.0
  - 0.0
  - 0.0
  - 0.0
  - 0.0
  - 0.0
  - 0.0
---
header:
  stamp:
    sec: 162
    nanosec: 0
  frame_id: base_link
pose:
  pose:
    position:
      x: 0.653143251351596
      y: 0.4856920851030351
      z: 0.11516671989918148
    orientation:
      x: -0.08616698958306337
      y: -1.9980712377828592e-17
      z: 0.48867752580544777
      w: 0.8681990127147451
  covariance:
  - 0.0
  - 0.0
  - 0.0
  - 0.0
  - 0.0
  - 0.0
  - 0.0
  - 0.0
  - 0.0
  - 0.0
  - 0.0
  - 0.0
  - 0.0
  - 0.0
  - 0.0
  - 0.0
  - 0.0
  - 0.0
  - 0.0
  - 0.0
  - 0.0
  - 0.0
  - 0.0
  - 0.0
  - 0.0
  - 0.0
  - 0.0
  - 0.0
  - 0.0
  - 0.0
  - 0.0
  - 0.0
  - 0.0
  - 0.0
  - 0.0
  - 0.0
---
header:
  stamp:
    sec: 163
    nanosec: 0
  frame_id: base_link
pose:
  pose:
    position:
      x: 0.6526012570623574
      y: 0.486013007575794
      z: 0.11507115173038196
    orientation:
      x: -0.08682400668205324
      y: -1.2018514941958769e-17
      z: 0.49240365679713965
      w: 0.8660255369424621
  covariance:
  - 0.0
  - 0.0
  - 0.0
  - 0.0
  - 0.0
  - 0.0
  - 0.0
  - 0.0
  - 0.0
  - 0.0
  - 0.0
  - 0.0
  - 0.0
  - 0.0
  - 0.0
  - 0.0
  - 0.0
  - 0.0
  - 0.0
  - 0.0
  - 0.0
  - 0.0
  - 0.0
  - 0.0
  - 0.0
  - 0.0
  - 0.0
  - 0.0
  - 0.0
  - 0.0
  - 0.0
  - 0.0
  - 0.0
  - 0.0
  - 0.0
  - 0.0
---
header:
  stamp:
    sec: 164
    nanosec: 0
  frame_id: base_link
pose:
  pose:
    position:
      x: 0.6520565427927605
      y: 0.4863290977252368
      z: 0.1149751039558975
    orientation:
      x: -0.0874793507020556
      y: 1.6065310546779395e-17
      z: 0.496120299281643
      w: 0.86383563936749
  covariance:
  - 0.0
  - 0.0
  - 0.0
  - 0.0
  - 0.0
  - 0.0
  - 0.0
